name,category,region,address,lat,lon,phone,email,website,website_live,facebook,instagram,completeness_score,source,scraped_at
Sursock Museum,art museum,Beirut,"Greek Orthodox Archbishopric Street, Achrafieh 2071 5509, Beirut",,,+961 1202001,mailto:info@sursock.museum,https://sursock.museum/,True,,,4,wikidata,2026-05-02T16:02:09.618883Z
Order of Friars Minor,organization,,"Roma, Via di S. Maria Mediatrice, 25",,,+39-06-684-919,mailto:comgen@ofm.org,http://www.ofm.org/,True,,,4,wikidata,2026-05-02T16:02:09.618883Z
Arabic Language International Council,metaorganization,,,,,+961-1-364-611,,https://alarabiahcouncil.org/,True,,,2,wikidata,2026-05-02T16:02:09.618883Z
Archaeological Museum of the American University of Beirut,museum,,,,,+961 1 759665,mailto:museum@aub.edu.lb,https://www.aub.edu.lb/museum_archeo/Pages/default.aspx,True,,,3,wikidata,2026-05-02T16:02:09.618883Z
Fahed,supermarket,Mount Lebanon,,33.9849867,35.6347929,+9619934433,,,,,,1,osm,2026-05-02T16:02:09.618425Z
Rosary Sisters Hospital,hospital,Beirut,,33.895671,35.5150606,+9611440800,info@hopitalrosaire.org,http://www.hopitalrosaire.org/,True,,,3,osm,2026-05-02T16:02:09.618425Z
مستشفى الإقليم المركزي,hospital,Mount Lebanon,,33.6139536,35.4721675,+9617970777,,,,,,1,osm,2026-05-02T16:02:09.618425Z
روسّا كافيه,cafe,Beirut,,33.8952284,35.484735,+961 1 343 339,,,,,,1,osm,2026-05-02T16:02:09.618425Z
لبانون تاكسي,taxi,Beirut,Beyrouth,33.8954564,35.4877506,+9611340719,,https://lebanontaxi.com/,True,,,3,osm,2026-05-02T16:02:09.618425Z
ستاربكس,cafe,Beirut,,33.8956032,35.4830661,+9611744305,,https://www.starbucks.com/,True,,,2,osm,2026-05-02T16:02:09.618425Z
صيدلية قاروط,pharmacy,Beirut,,33.875686,35.4974978,+9611306099,,,,,,1,osm,2026-05-02T16:02:09.618425Z
حنيني,pharmacy,Beirut,بيروت,33.8736312,35.5000326,+9611819110,,,,,,2,osm,2026-05-02T16:02:09.618425Z
مطعم الشمس,restaurant,Bekaa,"Anjar Main Road, Anjar",33.7293791,35.9272457,+9618620568,,,,,,2,osm,2026-05-02T16:02:09.618425Z
عبدالرحمان الحلاب,bakery,North Lebanon,Tripoli,34.4374808,35.8336931,+9616444445,,https://www.hallab.com.lb/,True,,,3,osm,2026-05-02T16:02:09.618425Z
أوتيل ماربل تاور,hotel,Beirut,شارع نعمة يافت,33.8966863,35.4802065,+9611354586,info@marbletowerhotel.com,http://www.marbletowerhotel.com,True,,,4,osm,2026-05-02T16:02:09.618425Z
مستشفى النيني,hospital,North Lebanon,,34.4354153,35.830454,+9616431400,,https://www.hopitalnini.com,True,,,2,osm,2026-05-02T16:02:09.618425Z
أفران شمسين,bakery,Mount Lebanon,طريق البحر السريع,33.7765746,35.4716779,+9615800658,,http://www.chamsine.net,True,,,3,osm,2026-05-02T16:02:09.618425Z
Aida Pharmacy,pharmacy,Mount Lebanon,Debbiyeh,33.6828717,35.4748587,+9617985662,,,,,,2,osm,2026-05-02T16:02:09.618425Z
بلدية الدبية,townhall,Mount Lebanon,الدبية,33.6649877,35.4889622,+9617985400,,,,,,2,osm,2026-05-02T16:02:09.618425Z
صيدلية الوردية,pharmacy,Mount Lebanon,,33.8005793,35.4861194,+9615806608,,,,,,1,osm,2026-05-02T16:02:09.618425Z
باب الميناء,restaurant,North Lebanon,,34.1218287,35.6439216,+9619540475,,,,,,1,osm,2026-05-02T16:02:09.618425Z
Saydet Zgharta Hospital,hospital,North Lebanon,زغرتا,34.3996522,35.8856898,+9616660575,,http://www.ehdenz.com,False,,,3,osm,2026-05-02T16:02:09.618425Z
أوتيل بيفيو,hotel,Beirut,,33.9015855,35.4910599,+9611373090,,,,,,1,osm,2026-05-02T16:02:09.618425Z
Byblos Comfort Hotel,hotel,North Lebanon,جبيل,34.123963,35.6481661,+9619942200,info@bybloscomforthotel.com,,,,,3,osm,2026-05-02T16:02:09.618425Z
حاج سوبرستور,supermarket,North Lebanon,,34.1205801,35.6509154,+9619546000,,,,,,1,osm,2026-05-02T16:02:09.618425Z
نزل مار ميخائيل,hostel,Mount Lebanon,معاصر الشوف,33.6671352,35.6716396,+961 5 350451;+961 5 350452,,,,,,2,osm,2026-05-02T16:02:09.618425Z
فندق الباروك بالاس,hotel,Mount Lebanon,,33.7123376,35.6902985,+961 5 240251,,,,,,1,osm,2026-05-02T16:02:09.618425Z
فندق إيريس فلور,hotel,South Lebanon,Jezzine,33.5407869,35.5846962,+961 7 781999,,,,,,2,osm,2026-05-02T16:02:09.618425Z
الرامي,restaurant,Mount Lebanon,,33.8361609,35.7396675,+961 5 531694,,,,,,1,osm,2026-05-02T16:02:09.618425Z
CompuWave,computers & CCTV,Bekaa,Int. Mainstreet,33.9639371,36.1266215,+9618340432,,http://www.compuwaveLB.com,True,,,3,osm,2026-05-02T16:02:09.618425Z
مطعم أبو نعيم,restaurant,Beirut,"12, شارع عمر بن عبد العزيز, بيروت",33.8952358,35.4834994,+9611750480,,https://www.facebook.com/AbuNaimHamra,True,,,3,osm,2026-05-02T16:02:09.618425Z
Sabis Adma,school,Mount Lebanon,,34.0234982,35.6378846,+9619854154,,,,,,1,osm,2026-05-02T16:02:09.618425Z
Tavolina,restaurant,Beirut,,33.8971463,35.5243323,+961 1 442 244,,,,,,1,osm,2026-05-02T16:02:09.618425Z
سفارة هولندا,diplomatic,Beirut,جادة الرئيس اللواء فؤاد شهاب,33.8917386,35.5178249,+9611211150,,,,,,2,osm,2026-05-02T16:02:09.618425Z
ماكدونالدز,fast_food,Mount Lebanon,,33.9105469,35.5829256,+9614521349,,,,,,1,osm,2026-05-02T16:02:09.618425Z
ستاربكس,cafe,Mount Lebanon,,33.9005689,35.572722,+961 1 757 154,,https://locations.starbucks.com.lb/directory/mount-lebanon/zalka-road-zalka,True,,,2,osm,2026-05-02T16:02:09.618425Z
Wooden Bakery,bakery,Mount Lebanon,,33.8542707,35.569453,+9614532666,,,,,,1,osm,2026-05-02T16:02:09.618425Z
سي اسويت,confectionery,Beirut,Rue de Damas,33.8675065,35.5271053,+9611292444,,http://www.lebanon.com/seasweet/,True,,,3,osm,2026-05-02T16:02:09.618425Z
Copas,restaurant,Mount Lebanon,"برمانا, Broumana",33.8855576,35.6393939,+961 4 963 999,,http://www.copas.asia/,False,,,3,osm,2026-05-02T16:02:09.618425Z
مستشفى لبنان للقلب,hospital,North Lebanon,,34.4188689,35.8287278,+961 6 411 750,,,,https://www.facebook.com/lebanonhearthospital,,2,osm,2026-05-02T16:02:09.618425Z
Osta,pharmacy,Mount Lebanon,Wadi Shahrour,33.8178356,35.5579975,+961 5 943 571,,,,,,2,osm,2026-05-02T16:02:09.618425Z
بلدية تعلبايا,townhall,Bekaa,تعلبايا,33.8164634,35.8716132,+9618505915;+9618505916;+9618505917,,,,,,2,osm,2026-05-02T16:02:09.618425Z
مستشفى شتورا,hospital,Bekaa,شتورا,33.8192371,35.8586781,+9618544022,,http://www.chtourahospital.com,True,,,3,osm,2026-05-02T16:02:09.618425Z
مطعم الشلالات الزرقا,restaurant,Mount Lebanon,,33.6525097,35.5337695,+961 5 301 149,,,,,,1,osm,2026-05-02T16:02:09.618425Z
مختبرات الحدث,clinic,Mount Lebanon,,33.8394642,35.5303506,+9615464403,,,,,,1,osm,2026-05-02T16:02:09.618425Z
مطعم السلطان جبيل,restaurant,North Lebanon,,34.1219923,35.6436274,+9619550777,,,,,,1,osm,2026-05-02T16:02:09.618425Z
زهير,fast_food,Mount Lebanon,,33.8404637,35.5327688,+9615470504,,,,,,1,osm,2026-05-02T16:02:09.618425Z
my bakery,bakery,Mount Lebanon,,33.8243316,35.5445568,+9615922367,,,,,,1,osm,2026-05-02T16:02:09.618425Z
Hôpital Libano-Français,hospital,Bekaa,,33.8334351,35.9124998,+961 8 810 121,,,,,,1,osm,2026-05-02T16:02:09.618425Z
صيدلية سان شارل,pharmacy,Mount Lebanon,,33.845676,35.5466775,+9615952822,pharmacy.st-charles@outlook.com,,,,,2,osm,2026-05-02T16:02:09.618425Z
كنيسة الحماية لروم الملكيين الكاثوليك,place_of_worship,Mount Lebanon,"444, Road 1, Dekwaneh",33.8768441,35.54094,+961 1 480 597,,,,,,2,osm,2026-05-02T16:02:09.618425Z
Class Sport,sports,Beirut,,33.8490645,35.5363877,+9615958989,,,,,,1,osm,2026-05-02T16:02:09.618425Z
أتويه,clothes,Mount Lebanon,الحدث,33.8330102,35.5303192,+9615464096,,,,,,2,osm,2026-05-02T16:02:09.618425Z
EKT Katrangi,electronics,Beirut,"شارع خليل مطران, Beyrouth",33.864812,35.4904856,+961 1 820 020,,https://www.katranji.com,True,,,3,osm,2026-05-02T16:02:09.618425Z
Clinilab,clinic,Beirut,,33.8495472,35.5349449,+9615956011,,,,,,1,osm,2026-05-02T16:02:09.618425Z
hawilo hadath,fast_food,Mount Lebanon,,33.8407311,35.5327473,+9615462456,,,,,,1,osm,2026-05-02T16:02:09.618425Z
Papitto,laundry,Mount Lebanon,,33.8055452,35.5414058,+9615430677,,,,,,1,osm,2026-05-02T16:02:09.618425Z
بلدية حومال,townhall,Mount Lebanon,,33.8122122,35.5593032,+9615942794,,,,,,1,osm,2026-05-02T16:02:09.618425Z
Samar,pharmacy,Mount Lebanon,,33.8428302,35.5299652,+9615469881,,,,,,1,osm,2026-05-02T16:02:09.618425Z
Abi Nader,marketplace,Mount Lebanon,,33.8254889,35.5455226,+9615922811,,,,,,1,osm,2026-05-02T16:02:09.618425Z
Softkube s.a.r.l.,company,Beirut,"Slaf Street, Beyrouth",33.878791,35.5427933,+9611494676,,https://softkube.com/,True,,,3,osm,2026-05-02T16:02:09.618425Z
lalous argileh,tobacco,Mount Lebanon,,33.8026259,35.5440176,+9615431368,,,,,,1,osm,2026-05-02T16:02:09.618425Z
جفينور روتانا,hotel,Beirut,,33.8980962,35.4879423,+9611371888,,,,,,1,osm,2026-05-02T16:02:09.618425Z
Vista del Mar,hotel,Mount Lebanon,,33.994658,35.6422228,+9619639799,,,,,,1,osm,2026-05-02T16:02:09.618425Z
موج البحر,restaurant,Mount Lebanon,,33.9945666,35.6406626,+9619914414,,,,,,1,osm,2026-05-02T16:02:09.618425Z
Makhlouf,restaurant,Mount Lebanon,,33.9885817,35.6374521,+961 9 645 192,,,,,,1,osm,2026-05-02T16:02:09.618425Z
El Mina,convenience,Mount Lebanon,,33.9879854,35.6371376,+9619637382,,,,,,1,osm,2026-05-02T16:02:09.618425Z
Maison Swiss,bar,Mount Lebanon,,33.987383,35.6371741,+9619930807,,,,,,1,osm,2026-05-02T16:02:09.618425Z
Concept,car_rental,Mount Lebanon,,33.9934074,35.6420657,+9619910091,,,,,,1,osm,2026-05-02T16:02:09.618425Z
Al Murjan Palace Hotel,hotel,Mount Lebanon,,33.9914977,35.6414817,+9619832199,,,,,,1,osm,2026-05-02T16:02:09.618425Z
مانويلا,restaurant,Mount Lebanon,,34.004112,35.6447601,+961 9 830 000,,,,,,1,osm,2026-05-02T16:02:09.618425Z
Josons,outdoor,Mount Lebanon,,33.9821752,35.636614,+9619 644 444,,,,,,1,osm,2026-05-02T16:02:09.618425Z
Sanita,company,Mount Lebanon,,34.0830218,35.6500995,+9619477001,info@sanitalb.com,http://www.sanitalb.com,True,,,3,osm,2026-05-02T16:02:09.618425Z
بربكيو,fast_food,Mount Lebanon,,33.9818277,35.6286457,+961 9 936 906,,,,,,1,osm,2026-05-02T16:02:09.618425Z
Khodr Jewelry,jewelry,Beirut,شارع أمين منيمنة,33.8929773,35.4853709,+9611343539,info@khodrjewelry.com,https://www.khodrjewelry.com/,False,,,4,osm,2026-05-02T16:02:09.618425Z
Regency Palace,hotel,Mount Lebanon,,34.018442,35.6485142,+961 9 854 000;+961 9 854 854,,,,,,1,osm,2026-05-02T16:02:09.618425Z
Abdo Couture,clothes,Beirut,,33.8732185,35.5221117,+9611280020,,,,,,1,osm,2026-05-02T16:02:09.618425Z
Chady Abi Aad,electronics,Mount Lebanon,,33.8907552,35.5581884,+9611881231,,,,,,1,osm,2026-05-02T16:02:09.618425Z
Terra Cool,hvac,Beirut,,33.8931404,35.5333746,+9611580300,,,,,,1,osm,2026-05-02T16:02:09.618425Z
Centre de Design Farra,furniture,Mount Lebanon,"155, طريق برمانا الرئيسية, Metn",33.8638968,35.5469009,+961 1 687 000,,http://www.farra.com,True,,,3,osm,2026-05-02T16:02:09.618425Z
Sushiway,restaurant,Mount Lebanon,,34.0138415,35.6471309,+961 9 850 825,,,,,,1,osm,2026-05-02T16:02:09.618425Z
فندق نابليون,hotel,Beirut,"شارع نعمة يافت, بيروت",33.8971357,35.4800474,+9611340013,,https://www.napoleonbeirut.com/,True,,,3,osm,2026-05-02T16:02:09.618425Z
Municipality of Chnaniir,townhall,Mount Lebanon,,34.0087232,35.6675813,+9619925400,,,,,,1,osm,2026-05-02T16:02:09.618425Z
رصيف بيروت,restaurant,Beirut,"شارع عمر بن عبد العزيز, Beyrouth",33.8974423,35.4844673,+9611736727,,,,,,2,osm,2026-05-02T16:02:09.618425Z
A New Earth Organic Store,supermarket,Beirut,شارع زهرة الإحسان,33.8897362,35.5174801,+961 1 219 920,,https://www.anewearth.net/,True,,,3,osm,2026-05-02T16:02:09.618425Z
ملك الطاووق أبراج,fast_food,Beirut,,33.8680207,35.5263357,+9611281678,,,,,,1,osm,2026-05-02T16:02:09.618425Z
MidTown Hotel & Suites,hotel,South Lebanon,"483, شارع صوراتي, Beyrouth",33.8971008,35.4834235,+961 1 347 555,,,,https://www.facebook.com/MidtownHotelSuites,,3,osm,2026-05-02T16:02:09.618425Z
صب معادن أرتين,convenience,Mount Lebanon,,33.8853167,35.551827,+9611488500,,,,,,1,osm,2026-05-02T16:02:09.618425Z
برد هوس,bakery,North Lebanon,كفر عبيدا,34.2292929,35.6600723,+9616643000,,,,,,2,osm,2026-05-02T16:02:09.618425Z
تي إس سي بلوس,supermarket,Mount Lebanon,"Al Sayyad Round About, Baabda",33.8543472,35.5347045,+961 5 955 200,,https://www.sultan-center.com/Default.aspx?pageId=525,True,,,3,osm,2026-05-02T16:02:09.618425Z
ملحمة الحدشيتي,butcher,Mount Lebanon,,33.8279785,35.5278706,+9615469153,,,,,,1,osm,2026-05-02T16:02:09.618425Z
ماكدونالدز,fast_food,Mount Lebanon,,33.8543587,35.5701848,+9614534072,,,,,,1,osm,2026-05-02T16:02:09.618425Z
اسناك الجزيرة,bakery,Beirut,"شارع دونان, بيروت",33.8931656,35.4875864,+961 1 755 557,,,,,,2,osm,2026-05-02T16:02:09.618425Z
Focal Point,garden_centre,Mount Lebanon,,33.8699812,35.6067235,+9614870995,,,,,,1,osm,2026-05-02T16:02:09.618425Z
Grand Hills,hotel,Mount Lebanon,"Charkieh Main Road, Broumana",33.8770925,35.6241206,+961 4 868 888,reservations.grandhills@luxurycollection.com,https://www.marriott.com/hotels/travel/beylc-grand-hills-a-luxury-collection-hotel-and-spa-broumana/,True,,,4,osm,2026-05-02T16:02:09.618425Z
لايت آرت,photo,Beirut,,33.8469923,35.5262023,+9615463850,,,,,,1,osm,2026-05-02T16:02:09.618425Z
بطل للانارة,furniture,Beirut,,33.8802872,35.4928284,+9611706706,,,,,,1,osm,2026-05-02T16:02:09.618425Z
كاليري بيضون,furniture,Beirut,,33.8744788,35.5072986,+9611633616,,,,,,1,osm,2026-05-02T16:02:09.618425Z
Cinemall,cinema,Mount Lebanon,,33.9294732,35.5893892,+9614444399,,,,,,1,osm,2026-05-02T16:02:09.618425Z
Deek Duke,restaurant,Mount Lebanon,,33.9296466,35.5886416,+961 4 524 790,,,,,,1,osm,2026-05-02T16:02:09.618425Z
مركز السيدة,hospital,Mount Lebanon,,33.9100619,35.5874143,+9614713100;+9614713101;+9614713102;+9614713103,,,,,,1,osm,2026-05-02T16:02:09.618425Z
The Peninsula,restaurant,Mount Lebanon,,33.9470802,35.5937397,+961 4 540 240,info@thepeninsula.com.lb,https://www.thepeninsula.com.lb/,True,https://m.facebook.com/thepeninsularestaurantandgardens/,,4,osm,2026-05-02T16:02:09.618425Z
Murray,restaurant,Mount Lebanon,,33.9184787,35.5873168,+9614444213,,,,,,1,osm,2026-05-02T16:02:09.618425Z
Résidence de France,hotel,Mount Lebanon,27,33.9491476,35.593779,+9614540797,,,,,,2,osm,2026-05-02T16:02:09.618425Z
964 Resto Cafe,restaurant,Mount Lebanon,,33.9187557,35.5879347,+961 4 444 810,,,,,,1,osm,2026-05-02T16:02:09.618425Z
McDonald's,fast_food,North Lebanon,,34.1360407,35.6453389,+9619622056,,,,,,1,osm,2026-05-02T16:02:09.618425Z
مسعد,fast_food,Beirut,,33.8595141,35.5371068,+9615450048,,,,,,1,osm,2026-05-02T16:02:09.618425Z
متحف الحياة البرية والبحرية,museum,Mount Lebanon,,33.9486721,35.6337208,+961 9 222 054,,http://lmwm.org,False,,,2,osm,2026-05-02T16:02:09.618425Z
Pit Stop Cafe,cafe,Mount Lebanon,,33.9563159,35.6114276,+9619219999,,,,,,1,osm,2026-05-02T16:02:09.618425Z
Pharmacie Bakhos,pharmacy,Mount Lebanon,,34.0139943,35.6469872,+961 9 853 254,,,,,,1,osm,2026-05-02T16:02:09.618425Z
zaatar w zeit,restaurant,Mount Lebanon,,33.9297523,35.5894042,+961 4 521 978,,,,,,1,osm,2026-05-02T16:02:09.618425Z
بابل,restaurant,Mount Lebanon,,33.9414709,35.5920544,+9614546546,,https://www.babelrestaurant.com/,True,,,2,osm,2026-05-02T16:02:09.618425Z
جوجو لامب,electronics,Beirut,,33.8495292,35.5046862,+9611559899,,,,,,1,osm,2026-05-02T16:02:09.618425Z
Swiss Butter,restaurant,Bekaa,Zahlé,33.8547032,35.8945703,+961 8 818 518,,,,,,2,osm,2026-05-02T16:02:09.618425Z
Platea,hotel,Mount Lebanon,,33.9976363,35.6490573,+9619831666,,,,,,1,osm,2026-05-02T16:02:09.618425Z
فرن العذرا,fast_food,Mount Lebanon,,34.0632699,35.7090892,+9619860885,,,,,,1,osm,2026-05-02T16:02:09.618425Z
برادي حمود,curtain,Beirut,,33.858105,35.5102161,+9611273315;+9611273385,,,,,,1,osm,2026-05-02T16:02:09.618425Z
مايك سبور,sports,Beirut,,33.8546124,35.5145023,+9611888855,,,,,,1,osm,2026-05-02T16:02:09.618425Z
Securol,curtain,Mount Lebanon,,33.7794537,35.4744263,+9615801461,,,,,,1,osm,2026-05-02T16:02:09.618425Z
صالح ديكو,furniture,Beirut,"شارع ألفريد نقاش, بيروت",33.8824458,35.5209111,+961 1 398 449,info@salehdeo.com,https://salehdeco.com/,True,SalehDecosal,,5,osm,2026-05-02T16:02:09.618425Z
مستشفى سيدة المعونات جبيل,hospital,North Lebanon,,34.1281622,35.6588606,+961 9 940 400,info@chu-nds.org,http://chu-nds.org/,True,,,3,osm,2026-05-02T16:02:09.618425Z
زجاح الشعار,glaziery,Mount Lebanon,,33.8197085,35.5244698,+9615430281,,,,,,1,osm,2026-05-02T16:02:09.618425Z
Université Libano-Française,university,North Lebanon,"Boulevard Béchara el Khoury, Tripoli",34.4286331,35.8322329,+961 6 425 608;+961 6 425 609,info@ulf.edu.lb,http://ulf.edu.lb/,False,,,4,osm,2026-05-02T16:02:09.618425Z
غرفة غرفة التجارة و الصناعة و الزراعة في طرابلس و لبنان الشمالي,administrative,North Lebanon,"Bechara El Khoury, Tripoli",34.4285062,35.8334964,+9616425600,,https://cciat.org.lb/,True,,,3,osm,2026-05-02T16:02:09.618425Z
ستوريوم صليبا,supermarket,Mount Lebanon,,33.9206337,35.6305617,+9614922934,info@storiomsaliba.com,http://www.storiom.com.lb,True,,,3,osm,2026-05-02T16:02:09.618425Z
مستشفى مظلوم,hospital,North Lebanon,"شارع أشرف كبارة, طرابلس",34.431834,35.8327696,+9616410025,info@newmazloum.com,http://newmazloum.com,True,https://www.facebook.com/newmazloumhospital,,5,osm,2026-05-02T16:02:09.618425Z
صيدلية شعلان,pharmacy,Akkar,طريق وادي خالد,34.6386194,36.3634359,+9616870110,,,,,,2,osm,2026-05-02T16:02:09.618425Z
شادي نجار,electronics,Beirut,,33.8768815,35.5059099,+9611630620,,,,,,1,osm,2026-05-02T16:02:09.618425Z
Boulangerie Kolkas,bakery,Beirut,,33.8592872,35.5089707,+961 1 555 132,,,,,,1,osm,2026-05-02T16:02:09.618425Z
Saniour,restaurant,Mount Lebanon,,33.9987977,35.6480661,+9619933944,,,,,,1,osm,2026-05-02T16:02:09.618425Z
الزعيم اوتو بارتز,car_parts,Beirut,,33.8664199,35.5166388,+9611392039,,,,,,1,osm,2026-05-02T16:02:09.618425Z
اوركا,shoes,Beirut,,33.8476184,35.5248293,+9615467300;+9615467302,,,,,,1,osm,2026-05-02T16:02:09.618425Z
Allied Computer Services ALCS,computer,Mount Lebanon,,33.900963,35.6045228,+9614727010;+9614717002,,,,,,1,osm,2026-05-02T16:02:09.618425Z
Saba Supermarket,supermarket,Mount Lebanon,طريق انطلياس بكفيا,33.9206561,35.6878047,+9614980077,,,,,,2,osm,2026-05-02T16:02:09.618425Z
السفارة التركية,diplomatic,Mount Lebanon,,33.9185154,35.6042597,+961 4 528 061;+961 4 528 062;+961 4 528 063,ambassade.beyrouth@mfa.gov.tr,https://beyrut-be.mfa.gov.tr,True,,,3,osm,2026-05-02T16:02:09.618425Z
AKL Stores,clothes,Beirut,,33.85939,35.5360561,+9615454381,,,,,,1,osm,2026-05-02T16:02:09.618425Z
دي آش إل,post_office,Beirut,"شارع الأمير بشير, بيروت",33.8946945,35.5057092,+9611629700,,http://dhl.com.lb,False,,,3,osm,2026-05-02T16:02:09.618425Z
السفارة الألمانية,diplomatic,Mount Lebanon,,33.9207107,35.6166857,+961 4 935 000,,,,,,1,osm,2026-05-02T16:02:09.618425Z
SSCC Bikfaya,school,Mount Lebanon,,33.9210126,35.6820619,+961 4 980 510,,http://www.bikfaya.sscc.edu.lb/,True,,,2,osm,2026-05-02T16:02:09.618425Z
Akiki Freres,beverages,Mount Lebanon,Antelias - Akiki Freres Street,33.9191315,35.5894201,+9614444227,,https://www.akikifreres.com/,True,,,3,osm,2026-05-02T16:02:09.618425Z
Wooden Bakery,bakery,Mount Lebanon,,34.0222814,35.6468058,+9619855935,,,,,,1,osm,2026-05-02T16:02:09.618425Z
Saab,restaurant,Mount Lebanon,,33.918608,35.6774327,+9614986269,,,,,,1,osm,2026-05-02T16:02:09.618425Z
آزار,fuel,Mount Lebanon,93,33.9196273,35.6174914,+9614911274,azarstation@gmail.com,,,,,3,osm,2026-05-02T16:02:09.618425Z
Atyãb Harissa Restaurant,cafe,Mount Lebanon,,33.9815459,35.6520239,+9619263030,,,,,,1,osm,2026-05-02T16:02:09.618425Z
Hilton Beirut Habtoor Grand,hotel,Beirut,"Charles De Gaulle Street, Beyrouth",33.869416,35.5372243,+961 1 500 666,BeirutHabtoorGrand.Information@hilton.com,https://www.hilton.com/en/hotels/beyhghi-hilton-beirut-habtoor-grand,True,http://www.facebook.com/HiltonBeirutHabtoorGrand,https://instagram.com/hiltonbeirut,5,osm,2026-05-02T16:02:09.618425Z
Gourma,restaurant,Mount Lebanon,أتستراد البحر,34.0177117,35.6316217,+9619856609,thegourma@gmail.com,,,,,3,osm,2026-05-02T16:02:09.618425Z
شاورما الزهراء,fast_food,Beirut,أوتستراد هادي نصرالله,33.8601414,35.5116712,+9611277860,,,,,,2,osm,2026-05-02T16:02:09.618425Z
Halabi Exsange,bureau_de_change,Beirut,شارع الأوزاعي,33.8784443,35.5050367,+9611630414,,,,,,2,osm,2026-05-02T16:02:09.618425Z
Sfeir Industries-Stainless Steel,furniture,Mount Lebanon,,33.8925828,35.5590614,+9611884666,,,,,,1,osm,2026-05-02T16:02:09.618425Z
hidden valley,picnic_site,Mount Lebanon,,33.8720957,35.7340441,+9615360863,,,,,,1,osm,2026-05-02T16:02:09.618425Z
مجموعة البضن,clothes,North Lebanon,طريق البحر,34.4478986,35.825643,+9616600558,info@bodongroup.com,http://www.bodongroup.com,False,,,4,osm,2026-05-02T16:02:09.618425Z
مختبرات الدكتور نعمه,clinic,Mount Lebanon,,33.8925258,35.5586191,+9611253117,lab_naame@idm.net.lb,,,,,2,osm,2026-05-02T16:02:09.618425Z
جبنة وليام,fast_food,Mount Lebanon,ريفون,33.9764074,35.7114992,+9619957990,,,,,,2,osm,2026-05-02T16:02:09.618425Z
Media Square,photo,Mount Lebanon,جل الديب,33.906883,35.5857298,+9614719919,info@mediasquare.tv,https://www.mediasquare.tv/,True,,,4,osm,2026-05-02T16:02:09.618425Z
مطعم برج,restaurant,Beirut,,33.848684,35.4926971,+9611453777,info@bridgerest.net,http://www.bridgerest.net,False,,,3,osm,2026-05-02T16:02:09.618425Z
Strand Réstocafé,restaurant,Bekaa,,33.9097189,35.7569093,+961 4 295 681,,,,,,1,osm,2026-05-02T16:02:09.618425Z
روت فورتي وان,restaurant,Mount Lebanon,"41, Kferchima Main",33.8165845,35.5324613,+9615433783,,,,,,2,osm,2026-05-02T16:02:09.618425Z
ناتكو (كيا),car_repair,Beirut,بيروت,33.8889766,35.5322841,+961 1 574 999,,,,,,2,osm,2026-05-02T16:02:09.618425Z
عيادة الدكتور بري الاسعد,doctors,Akkar,,34.6215041,36.3894353,+9616870044,,,,,,1,osm,2026-05-02T16:02:09.618425Z
عبده ألمانيا,car_rental,Mount Lebanon,"شارع الأخوين رحباني, أنطلياس",33.9175329,35.5872473,+961 4 411 310,,,,,,2,osm,2026-05-02T16:02:09.618425Z
مسعد,fast_food,North Lebanon,,34.1247169,35.6489922,+9619856030,,,,,,1,osm,2026-05-02T16:02:09.618425Z
فاركم,mobile_phone,Mount Lebanon,شارع 19,33.8879216,35.5591609,+961 1 888 232,farcom.lb@gmail.com,,,,,3,osm,2026-05-02T16:02:09.618425Z
M.K Trading,pharmacy,Mount Lebanon,أتستراد البحر,33.897316,35.5584158,+9611876037,michoco50@hotmail.com,http://www.chocoreyo.com,False,,,4,osm,2026-05-02T16:02:09.618425Z
الإغاثة الأولية الدولية,community_centre,South Lebanon,طريق البحر,33.5674467,35.3816813,+9617733253,lib.hob.sai@pu-ami.org,http://www.premier-urgence.org,False,,,4,osm,2026-05-02T16:02:09.618425Z
Zen Spa,cosmetics,Bekaa,Ksara round point,33.8223529,35.8892255,+9618507906,info@zenspalebanon.com,http://www.zenspalebanon.com,False,,,4,osm,2026-05-02T16:02:09.618425Z
Chezena,beauty,Bekaa,ksara round point,33.8229535,35.8901946,+961 8 507 860,info@chezena.com,http://www.chezena.com,True,,,4,osm,2026-05-02T16:02:09.618425Z
مستشفى سرحال,hospital,Mount Lebanon,,33.9149893,35.6085047,+9614405050,h.serhal@sodetel.net.lb,http://www.hopitaldrsserhal.com/,True,https://m.facebook.com/profile.php?id=551897948172594,,4,osm,2026-05-02T16:02:09.618425Z
Dani Cell,mobile_phone,Mount Lebanon,,33.7928606,35.4925874,+9615804319,,,,,,1,osm,2026-05-02T16:02:09.618425Z
عيادة سبليني,clinic,Beirut,Boulevard Saëb Salam,33.8777804,35.5032947,+9611660940,drsiblini@gmail.com,,,,,3,osm,2026-05-02T16:02:09.618425Z
صيدليّة ألما,pharmacy,Beirut,,33.89239,35.499787,+9611377041,,,,,,1,osm,2026-05-02T16:02:09.618425Z
صيدلية شهاب,pharmacy,Beirut,,33.8893223,35.5024125,+9611663600,,,,,,1,osm,2026-05-02T16:02:09.618425Z
صيدلية سوبركير,pharmacy,Beirut,,33.8688261,35.5169748,+9611382388,,,,,,1,osm,2026-05-02T16:02:09.618425Z
السفارة الصينية,diplomatic,South Lebanon,72 Rue Nicolas Ibrahim Sursock,33.8712105,35.4891226,+9611856133,,http://lb.china-embassy.org,True,,,3,osm,2026-05-02T16:02:09.618425Z
د. تحسين الثمين,dentist,North Lebanon,Fouad Chihab,34.4402481,35.8386382,+9616625631,,,,,,2,osm,2026-05-02T16:02:09.618425Z
مستشفی البيسار,hospital,North Lebanon,,34.4394104,35.8402355,+9616432267;+961430365,,,,,,1,osm,2026-05-02T16:02:09.618425Z
شركة دريلرز,hardware,North Lebanon,الثقافة,34.4404609,35.8384828,+9616425054,,http://www.drillerz.com,True,,,3,osm,2026-05-02T16:02:09.618425Z
Tallet Nasr,restaurant,Mount Lebanon,,33.9083844,35.676303,+9614983549,,,,,,1,osm,2026-05-02T16:02:09.618425Z
المستشفى اللبناني الإيطالي,hospital,South Lebanon,,33.2536563,35.2246045,+9617344423,,,,,,1,osm,2026-05-02T16:02:09.618425Z
Moulin d'Or,fast_food,North Lebanon,جبيل,34.123729,35.6572523,+9619543999,,,,,,2,osm,2026-05-02T16:02:09.618425Z
مطعم كرم,restaurant,Akkar,"طريق كفرنون القطلبة, القبيات",34.5676287,36.2809484,+9616350227,info@karams.org,http://www.karams.org,True,,,4,osm,2026-05-02T16:02:09.618425Z
Library samaha,books,Mount Lebanon,ghadir jounie,33.977884,35.631721,+9619900353,,,,,,2,osm,2026-05-02T16:02:09.618425Z
مصبغة بلازا,laundry,Beirut,شارع بني معروف,33.8902191,35.4869465,+9611740260,,,,,,2,osm,2026-05-02T16:02:09.618425Z
KBC Workwear,tailor,Mount Lebanon,,33.9657284,35.6169879,+9619219811,info@kbcworkwear.com,http://www.kbcworkwear.com,True,,,3,osm,2026-05-02T16:02:09.618425Z
Maison de la Sécurité,computer,Mount Lebanon,"1068, Route Principale de Broumana;, Mansouriyé",33.8585894,35.5640627,+9614534861,mdls@dm.net.lb,,,,,3,osm,2026-05-02T16:02:09.618425Z
سنتر فنزويلا,clothes,Mount Lebanon,Rue Fouad Chehab,33.982559,35.6302251,+9619635019,domestica.jose@yahoo.com,,,,,3,osm,2026-05-02T16:02:09.618425Z
Dr Fadi Geara,doctors,Mount Lebanon,Rue 5,33.9494942,35.6511304,+961 9 237 651,fadi.geara@usj.edu.lb,,,,,3,osm,2026-05-02T16:02:09.618425Z
فندق كميلوت,hotel,Mount Lebanon,,34.007014,35.6487752,+9619855222,,,,,,1,osm,2026-05-02T16:02:09.618425Z
Amideast,government,Beirut,"Beirut Central District, Bazerkan Building, First floor, Nijmeh Square, Next to the Parliament Beiru",33.8975467,35.5041211,+9611989901,,http://amideast.com.lb,False,,,3,osm,2026-05-02T16:02:09.618425Z
منزل أبي راشد,attraction,Mount Lebanon,Abi Llameh Street,33.890665,35.567716,+9611902591,reine_abi_rached@icloud.com,,,,,3,osm,2026-05-02T16:02:09.618425Z
مركز فرح العطاء كفيفان,community_centre,North Lebanon,Kafifane Road,34.2316832,35.7175332,+9616721114,kfifane@offrejoie.org,https://www.offrejoie.org/,True,,,4,osm,2026-05-02T16:02:09.618425Z
سوبرماركت خوري,supermarket,North Lebanon,Route Jrâne,34.2202044,35.7150534,+9616720888,,,,,,2,osm,2026-05-02T16:02:09.618425Z
White City,convenience,Mount Lebanon,Abi El-Lameh Street,33.890727,35.567844,+9611886880,,http://whitecity.com,False,,,3,osm,2026-05-02T16:02:09.618425Z
منزل أبي راشد,guest_house,North Lebanon,Dahr El-Arbeh,34.2340397,35.7157337,+9616720323,mhabeeabirached@gmail.com,https://www.couchsurfing.com/people/mhabe-camil-abirached,True,,,4,osm,2026-05-02T16:02:09.618425Z
صالون وسام بو غصن للسيدات,hairdresser,Mount Lebanon,Bsalim exit,33.9003137,35.5982382,+9614723760,wissamboughosn@hotmail.com,,,,,3,osm,2026-05-02T16:02:09.618425Z
سانت ميشال بيت شباب,pharmacy,Mount Lebanon,,33.9253918,35.6777882,+961 4 983 703,,,,,,1,osm,2026-05-02T16:02:09.618425Z
مؤسسة النشار قطع غيار مرسيدس جديد ومستعمل,car_parts,Beirut,طريق بيروت القديم، باب الرمل بجانب مسجد أميرة,34.4291267,35.8383397,+9616625858,,,,,,2,osm,2026-05-02T16:02:09.618425Z
اوبتيك الرشيد,optician,North Lebanon,شارع عزمي بك,34.4385498,35.8378217,+9616628354,,,,,,2,osm,2026-05-02T16:02:09.618425Z
Saradar Bank,bank,Beirut,جادة شارل مالك,33.892783,35.5089121,+9611339000,,,,,,2,osm,2026-05-02T16:02:09.618425Z
أندريه مارشا,jewelry,Beirut,"55, Selim Abdel Adi",33.8905356,35.5141194,+9611337077,,https://www.andremarcha.com,True,,,3,osm,2026-05-02T16:02:09.618425Z
ماء الذهب للعطور,beauty,Beirut,شارع عمر بن عبد العزيز,33.8979292,35.4841202,+9611750815,hamra.maaalthahab@gmail.com,,,,,3,osm,2026-05-02T16:02:09.618425Z
Bchamoun Hospital,hospital,Mount Lebanon,,33.7828674,35.5231476,+9615270970,,,,https://www.facebook.com/bshamounspecialtyhospital,https://www.instagram.com/explore/locations/1024176296/lebanon/beirut-lebanon/bchamoun-speciality-hospital,2,osm,2026-05-02T16:02:09.618425Z
صيدلية الحكمة,pharmacy,Beirut,,33.8899814,35.4996836,+9611845877,,,,,,1,osm,2026-05-02T16:02:09.618425Z
سي سويت,convenience,Beirut,"1 طريق, سن الفيل",33.8733363,35.5414282,+9611512225,info@seasweet.com,https://www.seasweet.com/,True,,,4,osm,2026-05-02T16:02:09.618425Z
إميليو,confectionery,Mount Lebanon,شارع 72,33.8423508,35.5326813,+9615460158,,http://www.emilioshop.com,True,,,3,osm,2026-05-02T16:02:09.618425Z
السفارة الاسترالية,diplomatic,Beirut,,33.8955948,35.5000573,+9611960600,,https://lebanon.embassy.gov.au/,True,,,2,osm,2026-05-02T16:02:09.618425Z
السفارة البرازلية,diplomatic,Beirut,شارع الجيش,33.8952011,35.4996719,+961 1 982 161,,http://beirute.itamaraty.gov.br,True,,,3,osm,2026-05-02T16:02:09.618425Z
محطة نصار,fuel,Mount Lebanon,جون,33.5802078,35.4587878,+961 7 975 585,,,,,,2,osm,2026-05-02T16:02:09.618425Z
فندق وايت,hotel,Mount Lebanon,,34.0394999,35.6844277,+961 9 740 910,,,,,,1,osm,2026-05-02T16:02:09.618425Z
صيدلية إلسي,pharmacy,Mount Lebanon,,34.0344958,35.6694419,+961 9 741 300,,,,,,1,osm,2026-05-02T16:02:09.618425Z
Primutech s.a.r.l.,electronics,Mount Lebanon,Akram Radwan str.,33.7914152,35.485847,+9615811013,,http://wwe.primutech.com,False,,,3,osm,2026-05-02T16:02:09.618425Z
غريس,motel,Mount Lebanon,طريق برمانا الرئيسية,33.885046,35.6382056,+9614960715,,,,,,2,osm,2026-05-02T16:02:09.618425Z
فتدق ديو روي,hotel,Beirut,,33.8915246,35.5105761,+961 1 798 801,,http://www.duroyhotel.com,True,,,2,osm,2026-05-02T16:02:09.618425Z
Malena,restaurant,North Lebanon,,34.1213409,35.6442473,+961 9 544 111,,,,,,1,osm,2026-05-02T16:02:09.618425Z
Bay Rock,restaurant,Beirut,شارع فرسان الهيكل,33.8906881,35.4716054,+961 1 796 700,,https://bayrockcafe.com/,True,,,3,osm,2026-05-02T16:02:09.618425Z
Chef Jack,restaurant,Mount Lebanon,Rond Point Wakim,33.8699535,35.6077322,+961 4 870 324,,,,,,2,osm,2026-05-02T16:02:09.618425Z
Il Palmito,restaurant,Mount Lebanon,,33.8731393,35.6111137,+961 4 874 079,,,,,,1,osm,2026-05-02T16:02:09.618425Z
السفارة الملكية النرويجية,diplomatic,Beirut,بيروت,33.8956962,35.5000469,+9611763200,,https://www.norway.no/en/lebanon,True,,,3,osm,2026-05-02T16:02:09.618425Z
Mosaic,ngo,Beirut,,33.8726572,35.517313,+9611395445,mosaic@mosaic-mena.org,https://www.mosaicmena.org,False,,,3,osm,2026-05-02T16:02:09.618425Z
فرن بدارو ستريت,bakery,Beirut,,33.8739835,35.51615,+9611381232,,,,,,1,osm,2026-05-02T16:02:09.618425Z
Jean-Claude,restaurant,Beirut,"Achrafieh Debbas, بيروت",33.8922174,35.5194833,+9611333532,info@breakfast-barn.com,https://www.breakfast-barn.com/,True,,,4,osm,2026-05-02T16:02:09.618425Z
L'Abeille d'Or,bakery,Beirut,,33.8882891,35.5248539,+9611204714,,,,,,1,osm,2026-05-02T16:02:09.618425Z
منتجع بيتش أمواج,chalet,Mount Lebanon,101,33.983504,35.63041,+9619918700,,,,,,2,osm,2026-05-02T16:02:09.618425Z
سانت جاك زكريت,pharmacy,Mount Lebanon,,33.9366818,35.6299333,+9614915730,,,,,,1,osm,2026-05-02T16:02:09.618425Z
ة مربوطة,restaurant,Beirut,Hamra,33.8958908,35.4828701,+961 1 743 882,,,,https://www.facebook.com/tmarbouta/,,3,osm,2026-05-02T16:02:09.618425Z
Kampaï,restaurant,Beirut,شارع رفيق سلوم,33.8991653,35.5006417,+961 1 999 093,,http://www.kampai.co,True,,,3,osm,2026-05-02T16:02:09.618425Z
Akiki Engineering,company,Beirut,"Rue Saïdé, Beyrouth",33.8869688,35.529373,+9611216022,,,,,,2,osm,2026-05-02T16:02:09.618425Z
شركة سي إم إم للتوريدات والخدمات,company,Beirut,"شارع فؤاد شهاب, سن الفيل",33.8701594,35.5423512,+9611512820,purchase@cmm-hc.com,,,,,3,osm,2026-05-02T16:02:09.618425Z
صيدلية الصباح,pharmacy,Mount Lebanon,الضبية,33.9492897,35.5954365,+9614544337,,,,,,2,osm,2026-05-02T16:02:09.618425Z
بنت الهدى,religion,Beirut,"بئر العبد, حارة حريك",33.8524844,35.5124644,+9611270285,,http://www.bintelhuda.com,True,,,3,osm,2026-05-02T16:02:09.618425Z
دار الحوراء الطبي,clinic,Beirut,"بئر العبد, حارة حريك",33.8549457,35.5117937,+9611544889,,,,,,2,osm,2026-05-02T16:02:09.618425Z
grandcinemas,cinema,Mount Lebanon,,33.9264856,35.5882363,+9614444650,,,,,,1,osm,2026-05-02T16:02:09.618425Z
Resto Ghazar,restaurant,Mount Lebanon,,33.9136338,35.5862727,+961 4 408 060,,,,,,1,osm,2026-05-02T16:02:09.618425Z
المنازل,guest_house,Akkar,القبيات,34.5668178,36.2797343,+9616350991,lesdemeureskobayth@gmail.com,,,,,3,osm,2026-05-02T16:02:09.618425Z
بنت الهدى,religion,South Lebanon,,33.3772858,35.4829075,+961 7 760 388,info@bintelhuda.com,http://www.bintelhuda.com,True,,,3,osm,2026-05-02T16:02:09.618425Z
Bon Goût,confectionery,North Lebanon,,34.4386038,35.8373664,+9616431503,,,,,,1,osm,2026-05-02T16:02:09.618425Z
Rassif Coffee & Tea,cafe,North Lebanon,شارع عشير الدايه,34.423443,35.8263942,+9616412772,,,,,,2,osm,2026-05-02T16:02:09.618425Z
شركة برودانت,dentist,Beirut,,33.8829203,35.525581,+9614717332,,https://prodent-me.com/,True,,,2,osm,2026-05-02T16:02:09.618425Z
Roland El Murr,driving_school,Beirut,,33.8867924,35.5283434,+9611326200,,https://www.facebook.com/pages/Roland-El-Murr-Driving-School,True,,,2,osm,2026-05-02T16:02:09.618425Z
Divvy,restaurant,Beirut,,33.8970409,35.525162,+961 1 444 020,,,,,,1,osm,2026-05-02T16:02:09.618425Z
مستشفى الراعي,hospital,South Lebanon,صيدا سينيق,33.5316527,35.3624088,+9617222023;+9617222024;+9617222025,,,,,,2,osm,2026-05-02T16:02:09.618425Z
Librairie Freiha,stationery,Beirut,"شارع ساسين, الاشرفية",33.8859181,35.520522,+9611324204,info@frayhamedia.com,http://www.frayhamedia.com,True,,,4,osm,2026-05-02T16:02:09.618425Z
فرن الوفاء,bakery,South Lebanon,طريق صيدا القديمة,33.8680505,35.5160366,+961 1 383 675,,http://alwafaabakery.com/,True,,,3,osm,2026-05-02T16:02:09.618425Z
Socrate Restaurant,restaurant,Beirut,"شارع 64, بيروت",33.8660247,35.487544,+961 1 846646,,https://www.socrate.com,True,,,3,osm,2026-05-02T16:02:09.618425Z
Helado,ice_cream,Mount Lebanon,,34.0002815,35.6490489,+9619938897,,,,,,1,osm,2026-05-02T16:02:09.618425Z
Caesar's Park Hotel,hotel,Beirut,,33.8925519,35.484219,+961747711,,,,,,1,osm,2026-05-02T16:02:09.618425Z
Crepaway,restaurant,Beirut,Hamra Street,33.8963489,35.4783316,+961 1 289 389,,http://www.crepaway.com/,True,https://m.facebook.com/crepaway/,,4,osm,2026-05-02T16:02:09.618425Z
ملحمة البتول,butcher,Akkar,,34.5892575,36.2292191,+9616830601,,,,,,1,osm,2026-05-02T16:02:09.618425Z
Rose d'Art,florist,Beirut,,33.8751907,35.5236027,+9611612694,,,,,,1,osm,2026-05-02T16:02:09.618425Z
Carrefour,supermarket,Beirut,,33.8610892,35.5296799,+961 1 296 300,,https://www.carrefourlebanon.com/,False,,,2,osm,2026-05-02T16:02:09.618425Z
Caravan Serail,restaurant,Beirut,Rue Commodor,33.8951501,35.4806784,+9611350199,,,,,,2,osm,2026-05-02T16:02:09.618425Z
فروج طارق,restaurant,Beirut,,33.8480115,35.5074415,+9611559454,,,,,,1,osm,2026-05-02T16:02:09.618425Z
فندق لا ميراج,hotel,Mount Lebanon,أتستراد البحر,34.0086343,35.648647,+9619851636,,,,,,2,osm,2026-05-02T16:02:09.618425Z
The Standard II,hotel,Beirut,,33.8976837,35.483667,+9611735832,info@beiruthome.com,,,,,2,osm,2026-05-02T16:02:09.618425Z
Cyclo sport,bicycle,Beirut,شارع غورو,33.8950619,35.5116344,+9611446792,,,,,,2,osm,2026-05-02T16:02:09.618425Z
Cash and Carry,garden_centre,Beirut,,33.8859122,35.4822217,+9611788711,info@candclb.com,,,,,2,osm,2026-05-02T16:02:09.618425Z
Pizza guys,fast_food,Beirut,,33.895079,35.5149887,+9611447441,,,,,,1,osm,2026-05-02T16:02:09.618425Z
El Qontar Guesthouse,hostel,Mount Lebanon,,33.8909494,35.7411052,+9614295043,,,,,,1,osm,2026-05-02T16:02:09.618425Z
Mr. Brown,restaurant,Beirut,جادة إلياس سركيس,33.8867289,35.5176563,+9611745545,,https://mrbrowndiner.com/,True,,,3,osm,2026-05-02T16:02:09.618425Z
المولينو,restaurant,North Lebanon,,34.1225485,35.6431934,+961 9 541 555,,,,,,1,osm,2026-05-02T16:02:09.618425Z
السفارة الدنماركية,diplomatic,Beirut,بيروت,33.8957231,35.499814,+9611991001,,https://libanon.um.dk,True,,,3,osm,2026-05-02T16:02:09.618425Z
المدرسة الأنطوانيّة - جمهور,school,Mount Lebanon,,33.8271998,35.5601773,+961 5 453 233,info@antonines-hazmieh.edu.lb,https://www.antonines-hazmieh.edu.lb/,True,,,3,osm,2026-05-02T16:02:09.618425Z
سفارة بنغلاديش,diplomatic,Beirut,"Safara Al Kuwaiti Street, بئر حسن",33.8593575,35.4933872,+9611842586,beirutmission@gmail.com,https://bangladeshembassybeirut.org/,False,,,4,osm,2026-05-02T16:02:09.618425Z
Soto Liban,restaurant,Beirut,شارع إبراهيم عبد العال,33.896631,35.4824971,+9611744144,,,,,,2,osm,2026-05-02T16:02:09.618425Z
كمبيوتر أيكو,computer,Mount Lebanon,طريق ميرنا الشالوحي,33.8853399,35.5468393,+9611488106,,http://www.computerecho.com,True,,,3,osm,2026-05-02T16:02:09.618425Z
Toy House,toys,Mount Lebanon,"أتستراد البحر, عاليه",33.8065061,35.5999714,+961 5 558 124,toyhouse-lb@hotmail.com,http://www.toyhouse-lb.com,False,,,4,osm,2026-05-02T16:02:09.618425Z
Darseen Restaurant,restaurant,Mount Lebanon,sea road zouk,33.9781179,35.6131547,+9619221067,,,,,,2,osm,2026-05-02T16:02:09.618425Z
master peintures,hardware,Beirut,"42, أوتوستراد هادي نصرالله",33.8498718,35.5155769,+9611542880,master_paints@hotmail.com,,,,,3,osm,2026-05-02T16:02:09.618425Z
أنتز,gift,Beirut,,33.8987939,35.4808545,+9613184211,,,,,https://www.instagram.com/antsinsta/,2,osm,2026-05-02T16:02:09.618425Z
ألدورادو,clothes,North Lebanon,,34.1232351,35.6525752,+9619542153,,,,,,1,osm,2026-05-02T16:02:09.618425Z
سفارة اليونان بيروت,diplomatic,Beirut,"شارع 21, بيروت",33.9177749,35.5989478,+961 4 521 700,gremb.bei@mfa.gr,https://www.mfa.gr/missionsabroad/en/lebanon.html,True,,,4,osm,2026-05-02T16:02:09.618425Z
عيادة بيروت للعيون دكتور الكسندر عاصي,clinic,Beirut,جادة سامي الصلح,33.8751539,35.5181241,+9611399299,,http://www.beiruteyeclinic.com/,True,,,3,osm,2026-05-02T16:02:09.618425Z
Ferdinand,bar,Beirut,شارع المهتما غاندي,33.8970906,35.4800335,+9611355955,,,,,,2,osm,2026-05-02T16:02:09.618425Z
منزلي,apartment,North Lebanon,بترومين,34.3715789,35.8046802,+9616405170,sfarjalanij@gmail.com,,,,,3,osm,2026-05-02T16:02:09.618425Z
Basic Outlet,variety_store,Beirut,,33.8528812,35.5383466,+961 5 953 140,,https://basicoutletstores.com/,True,,,2,osm,2026-05-02T16:02:09.618425Z
The Capital Insurance,insurance,Beirut,Mar Maroun Street,33.8728532,35.5398384,+9611486686,capital@capital-cir.com,http://www.capital-cir.com,True,,,4,osm,2026-05-02T16:02:09.618425Z
سفارة الهند,diplomatic,Beirut,,33.8969599,35.4822556,+9611735922,,https://www.indianembassybeirut.gov.in,True,,,2,osm,2026-05-02T16:02:09.618425Z
فنيش,variety_store,Beirut,Odaimi Street,33.8545439,35.5054623,+9611540786,hasanfneish@hotmail.com,,,,,3,osm,2026-05-02T16:02:09.618425Z
Siena Hotel,hotel,Mount Lebanon,,34.0063773,35.6464615,+9619854472,,,,,,1,osm,2026-05-02T16:02:09.618425Z
Luxor Hotel,hotel,Mount Lebanon,,34.0061905,35.6465755,+9619852002,,,,,,1,osm,2026-05-02T16:02:09.618425Z
الصفارية,hotel,Mount Lebanon,,34.0141934,35.6555915,+9619921066,info@hotelloriot.com,http://www.hotelloriot.com,False,,,3,osm,2026-05-02T16:02:09.618425Z
Tartina Di Mare,restaurant,Mount Lebanon,,33.9799744,35.627054,+9619912292,,http://www.tartinadimare.com,True,,,2,osm,2026-05-02T16:02:09.618425Z
Wooden Bakery,bakery,Mount Lebanon,,34.0115542,35.6516503,+9619853406,,,,,,1,osm,2026-05-02T16:02:09.618425Z
Monte Mare Hotel,hotel,Mount Lebanon,,34.0077085,35.6458125,+9619851624,,,,,,1,osm,2026-05-02T16:02:09.618425Z
Mateus Hotel,hotel,Mount Lebanon,,34.0088215,35.6487047,+9619856200,,,,,,1,osm,2026-05-02T16:02:09.618425Z
Wooden Bakery,bakery,Mount Lebanon,,33.917651,35.6755175,+9614984121,,http://www.woodenbakery.com/,True,,,2,osm,2026-05-02T16:02:09.618425Z
فندق بروميناد,hotel,Mount Lebanon,,33.9003903,35.5732359,+9611874774,,,,,,1,osm,2026-05-02T16:02:09.618425Z
Spirit Sail The Gallery,alcohol,Mount Lebanon,Zalqa,33.8954625,35.5761993,+961 1 895 212,,,,,,2,osm,2026-05-02T16:02:09.618425Z
Malak Al Tawouk,fast_food,North Lebanon,,34.1233908,35.6535674,+9619228005,,http://www.malakaltawouk.com/,True,,,2,osm,2026-05-02T16:02:09.618425Z
السوق الحرة بيروت,mall,Mount Lebanon,,33.8256133,35.4923154,+961 1 629 520,,http://www.beirutdutyfree.com/,True,,,2,osm,2026-05-02T16:02:09.618425Z
بنك البحر المتوسط,bank,Mount Lebanon,,33.8253338,35.4937038,+961 1 629 360,,https://www.bankmed.com.lb/,True,,,2,osm,2026-05-02T16:02:09.618425Z
فانتازي ورلد,theme_park,Beirut,,33.8501661,35.4949404,+961 1 451 185,,,,,,1,osm,2026-05-02T16:02:09.618425Z
بريد لبنان,post_office,Mount Lebanon,,33.8312188,35.4978223,+961 1 629 629,,,,,,1,osm,2026-05-02T16:02:09.618425Z
Ets. Sayah,optician,Mount Lebanon,,33.9213611,35.6818181,+961 4 980 337,,,,,,1,osm,2026-05-02T16:02:09.618425Z
Pharmacie Bikfaya,pharmacy,Mount Lebanon,,33.9221151,35.6863901,+9614984981,,,,,,1,osm,2026-05-02T16:02:09.618425Z
كنيسة القديسة مريم، الكنيسة الأرثوذكسية الأرمنية,place_of_worship,Mount Lebanon,,33.9167962,35.6631199,+961 4 983 634,,,,,,1,osm,2026-05-02T16:02:09.618425Z
Cnam University Bikfaya,university,Mount Lebanon,,33.9170663,35.6765279,+9614981321,,http://www.cnam-liban.fr/,True,,,2,osm,2026-05-02T16:02:09.618425Z
Beit Nazha,restaurant,North Lebanon,,34.1213537,35.6470812,+9619540057,,,,,,1,osm,2026-05-02T16:02:09.618425Z
é Baladi,restaurant,North Lebanon,,34.1214854,35.647112,+9619542224,,,,,,1,osm,2026-05-02T16:02:09.618425Z
أجنحة أربن سنترال - بيروت,hotel,Beirut,"Nefaa, دكوانة",33.880099,35.5440947,+9611488927,reservation@urbancentralsuites.com,,,,,3,osm,2026-05-02T16:02:09.618425Z
المعهد الفرنسي,educational_institution,South Lebanon,صيدا,33.5641591,35.3695845,+9617720192;+9617729592,saida@if-liban.com,https://institutfrancais-liban.com/,True,,,4,osm,2026-05-02T16:02:09.618425Z
كلاي,restaurant,Mount Lebanon,,33.9215239,35.6330418,+961 4 914 577,,,,,,1,osm,2026-05-02T16:02:09.618425Z
بيتزا هت,restaurant,Mount Lebanon,,33.9254009,35.632545,+961 4 928 581,,https://www.pizzahut-lb.com/,False,,,2,osm,2026-05-02T16:02:09.618425Z
Domino's,fast_food,Mount Lebanon,,33.9239289,35.6150585,+961 4 924 222,,https://www.dominos.com.lb/ar/,True,,,2,osm,2026-05-02T16:02:09.618425Z
فهد المطيلب,supermarket,Mount Lebanon,,33.9237257,35.6111738,+961 4 521 003,,,,,,1,osm,2026-05-02T16:02:09.618425Z
Le Gourmet,restaurant,Mount Lebanon,,33.9179143,35.6755233,+961 4 980 876,,,,,,1,osm,2026-05-02T16:02:09.618425Z
Kasso,clothes,Mount Lebanon,,33.9195708,35.6790963,+961 4 980 837,,,,,,1,osm,2026-05-02T16:02:09.618425Z
لو شركوتييه عون,supermarket,Beirut,,33.8666789,35.5414265,+961 1 491 946,,,,,,1,osm,2026-05-02T16:02:09.618425Z
لا شيكان,restaurant,Mount Lebanon,,33.9179842,35.6622487,+961 4 986 633,,,,,,1,osm,2026-05-02T16:02:09.618425Z
Carre Noir,clothes,North Lebanon,"41, Jbail - Main Street - Near Serail",34.1204997,35.6494814,+9619548123,,,,,,2,osm,2026-05-02T16:02:09.618425Z
فندق أورينت برينس,hotel,Beirut,"شارع أمين منيمنة, بيروت",33.8933692,35.4853969,+9611743930,,,,,,2,osm,2026-05-02T16:02:09.618425Z
Bartartine,restaurant,Mount Lebanon,,33.9345552,35.5912265,+961 4 543 049,,,,,,1,osm,2026-05-02T16:02:09.618425Z
Sleep Comfort Grand Magasin,department_store,Beirut,Rue El Khodr,33.8996986,35.5338621,+9611444444,,https://sleepcomfort.com/,True,,,3,osm,2026-05-02T16:02:09.618425Z
نقابة المحامين في طرابلس,lawyer,North Lebanon,,34.4331203,35.8340754,+9616434300,,,,,,1,osm,2026-05-02T16:02:09.618425Z
شوشي وي,restaurant,Mount Lebanon,الضبية,33.9445911,35.5925748,+961 4 547 540,,,,,,2,osm,2026-05-02T16:02:09.618425Z
Maliks,computer,Mount Lebanon,,33.9248991,35.5878189,+961 4 410 442,,,,,,1,osm,2026-05-02T16:02:09.618425Z
Hanna Bou Zeid,bakery,Bekaa,,33.8334223,35.9087303,+9618802903,,,,,,1,osm,2026-05-02T16:02:09.618425Z
Keif,restaurant,Mount Lebanon,,33.918872,35.5867603,+9614520003,,,,,,1,osm,2026-05-02T16:02:09.618425Z
Porky's,butcher,Mount Lebanon,,33.9916015,35.6511567,+961 9 933 323,info@porkyslebanon.com,http://www.porkyslebanon.com/,True,,https://www.instagram.com/porkyslebanon/,4,osm,2026-05-02T16:02:09.618425Z
Azrak,ice_cream,Mount Lebanon,"70, Azrak",33.89058,35.6677389,+9614821118,Riri@azrak.biz,http://azrak.biz,True,,,4,osm,2026-05-02T16:02:09.618425Z
سورجل فرن الشباك,ice_cream,Beirut,طريق الشام,33.8695835,35.5252482,+9611290902,,https://www.zomato.com/beirut/surgel-furn-el-chebbak-baabda-district,False,,,3,osm,2026-05-02T16:02:09.618425Z
مسعود,pharmacy,Mount Lebanon,,33.941036,35.5919307,+961 4 546 906,massoudpharmacy@outlook.com;faresmassoud@gmail.com,,,,,2,osm,2026-05-02T16:02:09.618425Z
تصوير,photo,Beirut,,33.8912398,35.5146904,+9611202996,,http://www.taswir.com/,True,,,2,osm,2026-05-02T16:02:09.618425Z
Club de Campagne Ehden,hotel,North Lebanon,,34.2902949,35.9475499,+961 6 560 651,info@ehdencountryclubhotel.com,http://www.ehdencountryclubhotel.com,True,,,3,osm,2026-05-02T16:02:09.618425Z
مدرسة القديسة ريتا,school,Mount Lebanon,الضبية,33.9446192,35.5932199,+961 4 544 125,,http://ecolesainterita.edu.lb/,False,,,3,osm,2026-05-02T16:02:09.618425Z
بتاكوم إو إم تي,mobile_phone,Mount Lebanon,"1, شارع 58",33.8373384,35.5297479,+9615465966,betacomlb@hotmail.com,,,,,3,osm,2026-05-02T16:02:09.618425Z
التحاليل المختبرية الطبية,clinic,Beirut,,33.8533641,35.5184977,+9611558702,confidencelab@gmail.com,,,,,2,osm,2026-05-02T16:02:09.618425Z
سفارة أرمينيا,diplomatic,Mount Lebanon,,33.9267311,35.6114731,+961 4 418 860,,https://lebanon.mfa.am/ar,True,,,2,osm,2026-05-02T16:02:09.618425Z
مركز الضنية الطبي,clinic,Akkar,"طريق طرابس - الضنية, مراح السراج",34.4178079,35.9971648,+9616240511,,,,,,2,osm,2026-05-02T16:02:09.618425Z
البنك اللبناني للتجارة,bank,Bekaa,,33.8398838,35.9120549,+9618829410,,,,,,1,osm,2026-05-02T16:02:09.618425Z
جبل عامل,hospital,South Lebanon,صور,33.2780561,35.2181251,+961 7 740 343,,,,,,2,osm,2026-05-02T16:02:09.618425Z
بورغر هوس,restaurant,Bekaa,بريتال,33.9337503,36.1527509,+961 1 071 719,,,,,,2,osm,2026-05-02T16:02:09.618425Z
نينو ستور,toys,Beirut,شارع الجزائر,33.890188,35.4914877,+9611739999,,,,,,2,osm,2026-05-02T16:02:09.618425Z
المحامي أنطون مارون,lawyer,Beirut,"شارع فؤاد شهاب, سن الفيل",33.8698963,35.5423873,+961 1 498 285,antoun.maroun@hotmail.com,,,,,3,osm,2026-05-02T16:02:09.618425Z
Randa Tabbah Jewelry,jewelry,Beirut,شارع مريم جحشان,33.889671,35.5189105,+961 1 215 288,info@randatabbah.com,https://www.randatabbah.com/,True,,,4,osm,2026-05-02T16:02:09.618425Z
Randa Tabbah Jewelry,jewelry,Beirut,شارع المخلصية,33.8940078,35.508219,+9611975030,info@randatabbah.com,https://www.randatabbah.com/,True,,,4,osm,2026-05-02T16:02:09.618425Z
المختار خضر محمد فرشوخ,government,Beirut,,33.9000326,35.4907249,+9611369955,,,,,,1,osm,2026-05-02T16:02:09.618425Z
مؤسّسة أنطوني داغر,hardware,Mount Lebanon,,33.8221639,35.5308416,+9615431960,,,,,,1,osm,2026-05-02T16:02:09.618425Z
مختار كفارشيما سهيل سليمان طعمة,government,Mount Lebanon,,33.8220967,35.531022,+9615436547,,,,,,1,osm,2026-05-02T16:02:09.618425Z
جوني مكردجيان رخام وغرانيت,stonemason,Mount Lebanon,,33.8230708,35.5281866,+9615435977,,,,,,1,osm,2026-05-02T16:02:09.618425Z
Class Supermarket,supermarket,Mount Lebanon,,33.816914,35.5324905,+9615441965,,,,,,1,osm,2026-05-02T16:02:09.618425Z
OMT,bureau_de_change,Mount Lebanon,,33.8171678,35.5322865,+961 1 391 000,,,,,,1,osm,2026-05-02T16:02:09.618425Z
بقجة,furniture,Beirut,,33.8939076,35.508164,+961 1 975976,info@bokja.com,http://www.bokja.com,False,,,3,osm,2026-05-02T16:02:09.618425Z
Mario e Mario,restaurant,Beirut,,33.8954736,35.5325678,+9611 444036,,,,https://facebook.com/marioemariotrattoria/,https://www.instagram.com/marioemario/,2,osm,2026-05-02T16:02:09.618425Z
Palmyra Hotel,hotel,Baalbek-Hermel,,34.0036726,36.2045786,+9618370230,,,,,,1,osm,2026-05-02T16:02:09.618425Z
Creative Space Beirut,educational_institution,Beirut,,33.8902296,35.5077473,+9611201088,info@creativespacebeirut.com,https://www.creativespacebeirut.com/,True,,,3,osm,2026-05-02T16:02:09.618425Z
مستشفى الساحل العام,hospital,Beirut,Dergham street,33.8579454,35.5036632,+961 1 858 333,info@sahelhospital.com.lb,https://www.sahelhospital.com/ar,False,,,4,osm,2026-05-02T16:02:09.618425Z
معجنات المينا,bakery,Beirut,,33.9003463,35.4894372,+9611375393,,,,,,1,osm,2026-05-02T16:02:09.618425Z
El Argentino,convenience,Beirut,,33.9000105,35.4909862,+9611368652,,,,,,1,osm,2026-05-02T16:02:09.618425Z
معجنات سعد,bakery,Beirut,,33.9001542,35.4909811,+9611365683,,,,,,1,osm,2026-05-02T16:02:09.618425Z
مصبغة,dry_cleaning,Beirut,,33.9001517,35.49103,+9611363185,,,,,,1,osm,2026-05-02T16:02:09.618425Z
Hotel AKL,hotel,Bekaa,Berdawni Promenade,33.8529392,35.8953987,+9618820701,,,,,,2,osm,2026-05-02T16:02:09.618425Z
هوت بايت,restaurant,Beirut,"بير العبد, حارة حريك",33.8545301,35.5126448,+961 1 555 616,,,,,,2,osm,2026-05-02T16:02:09.618425Z
Q-Hotel,hotel,Beirut,شارع روما,33.8957723,35.4878964,+961 1 345 500,,,,,,2,osm,2026-05-02T16:02:09.618425Z
Smart Vision,company,North Lebanon,اسكندر غريب,34.4378252,35.8309944,+9616438494,smartvisionlb@hotmail.com,,,,,3,osm,2026-05-02T16:02:09.618425Z
ورشة المعارف,ngo,Beirut,,33.8757696,35.5219339,+961 1 397 454,,https://alwarsha.org/,True,,,2,osm,2026-05-02T16:02:09.618425Z
مطعم عالبحر,restaurant,North Lebanon,,34.1300587,35.6416186,+9619541116,,,,,,1,osm,2026-05-02T16:02:09.618425Z
Galerie Bois Rouge,furniture,Mount Lebanon,"اتستراد اميل لحود, Hazmieh",33.8501498,35.5452394,+961 5 454 802,,,,,,2,osm,2026-05-02T16:02:09.618425Z
مستشفى بخعازي,hospital,Beirut,شارع عمر بن عبد العزيز,33.8987034,35.4843375,+9611742140,,http://www.bmg.com.lb,True,,,3,osm,2026-05-02T16:02:09.618425Z
خوري كلينرز,laundry,Mount Lebanon,,33.8630954,35.5493986,+961 1 689 629,,https://www.khourycleaners.com/,True,,,2,osm,2026-05-02T16:02:09.618425Z
مطعم العجمي,restaurant,Beirut,,33.8812318,35.4809156,+9611802260,,,,,,1,osm,2026-05-02T16:02:09.618425Z
Rosa-Luxemburg-Stiftung,ngo,Beirut,,33.8754579,35.5164542,+9611380893,,https://www.rosalux-lb.org/,True,,,2,osm,2026-05-02T16:02:09.618425Z
مطبعة عند رياض,copyshop,Beirut,,33.8984062,35.4837084,+961 1 341 079,support@3indriad.com,,,,,2,osm,2026-05-02T16:02:09.618425Z
مطعم قاووق,restaurant,Beirut,,33.8940652,35.4924612,+961 1 737 058,,,,,,1,osm,2026-05-02T16:02:09.618425Z
Pharmacie Rania,pharmacy,Mount Lebanon,,33.9450101,35.5928664,+9614540511,,,,,,1,osm,2026-05-02T16:02:09.618425Z
Al Baba Sweets,restaurant,Beirut,,33.8717062,35.5131536,+961 1 399 500,,,,,,1,osm,2026-05-02T16:02:09.618425Z
دار النمر,gallery,Beirut,,33.8968311,35.4913107,+9611367013,info@darelnimer.org,https://darelnimer.org/,True,,,3,osm,2026-05-02T16:02:09.618425Z
CTS travel & Tourism,travel_agency,Beirut,,33.8955124,35.4911775,+9611354333,,https://www.cts.com.lb/,True,,,2,osm,2026-05-02T16:02:09.618425Z
Worldwide Travel & Tourism,travel_agency,Beirut,,33.8969675,35.4912754,+9611366505,,http://worldwideTravel-lb.com,True,,,2,osm,2026-05-02T16:02:09.618425Z
"Newtown Specialty Coffee Roasters,، Mina 1300",cafe,North Lebanon,"1300, شارع رياض الصلح, Tripoli",34.4433452,35.8259909,+9616225002,,http://newtown.wheeeze.site/,False,,,3,osm,2026-05-02T16:02:09.618425Z
دُكَّان ماركت,supermarket,North Lebanon,,34.4440008,35.8256774,+9616220055,,,,,,1,osm,2026-05-02T16:02:09.618425Z
فريحة ميديا,advertising_agency,Beirut,"شارع ألفريد نقاش, بيروت",33.8900113,35.5206627,+961 1 201 740,info@frayhamedia.com,http://www.frayhamedia.com,True,,,4,osm,2026-05-02T16:02:09.618425Z
Maroun’s Gifts,gift,Beirut,,33.8972547,35.5262072,+9611565235,,,,,,1,osm,2026-05-02T16:02:09.618425Z
برغر وفلافل الخضر,fast_food,Beirut,,33.897432,35.5335638,+9611442850,,,,,,1,osm,2026-05-02T16:02:09.618425Z
Moussa Castle,museum,Mount Lebanon,,33.7006158,35.583233,+9615500106,,https://www.moussacastle.com/,False,,,2,osm,2026-05-02T16:02:09.618425Z
قهوة الروضة,restaurant,Beirut,,33.8954232,35.4687138,+9611743348,,,,,,1,osm,2026-05-02T16:02:09.618425Z
Swiss Butter,restaurant,Mount Lebanon,,33.9062265,35.579941,+961 4 712 571,,,,,,1,osm,2026-05-02T16:02:09.618425Z
السفارة السعوديّة,diplomatic,Beirut,,33.8988368,35.4754251,+961 1 762 722,,https://embassies.mofa.gov.sa/sites/Lebanon,True,,,2,osm,2026-05-02T16:02:09.618425Z
المورد الثقافي,ngo,Beirut,,33.8977842,35.4737019,+9611360415,,https://mawred.org/,True,,,2,osm,2026-05-02T16:02:09.618425Z
Bar Elias Municipality,townhall,Bekaa,"Bar Elias Main Street, Bar Elias",33.7660237,35.9042176,+961 8 510 016,,,,,,2,osm,2026-05-02T16:02:09.618425Z
Wooden Bakery,bakery,North Lebanon,,34.3223923,35.7374471,+9616542898,,,,,,1,osm,2026-05-02T16:02:09.618425Z
سفارة بلجيكا,diplomatic,Beirut,"شارع الأمير بشير, بيروت",33.8946646,35.504767,+9611976001,beirut@diplobel.fed.be,https://lebanon.diplomatie.belgium.be/,True,https://www.facebook.com/Ambassade-de-Belgique-%C3%A0-Beyrouth-536966563043969/,,5,osm,2026-05-02T16:02:09.618425Z
بي هايڤ,coworking,Beirut,"شارع المهتما غاندي, بيروت",33.8965494,35.478181,+9611355351,,http://www.thebhive.io/,True,https://www.facebook.com/pg/B.HIVEOfficialME/,,4,osm,2026-05-02T16:02:09.618425Z
باش منقوش,bakery,Beirut,,33.885206,35.4945969,+9611304527,,,,,,1,osm,2026-05-02T16:02:09.618425Z
ديليس,butcher,Beirut,,33.8852014,35.4946686,+9611312568,,,,,,1,osm,2026-05-02T16:02:09.618425Z
سوزوكي دراجات نارية,company,Beirut,Rue Fouad Chéhab,33.8757853,35.5409856,+9611496565,,https://suzukimotorcycleslebanon.com/,False,,,3,osm,2026-05-02T16:02:09.618425Z
Gigieffe,clothes,Beirut,Fouad Shehab Street,33.8751773,35.5411772,+961 1 482 278,,,,,,2,osm,2026-05-02T16:02:09.618425Z
محمصة الرفاعي,convenience,Beirut,Fouad Shehab Street,33.8701108,35.5418662,+9611495779,,https://store.alrifai.com,True,,,3,osm,2026-05-02T16:02:09.618425Z
صيدلية خوري,pharmacy,Beirut,سن الفيل,33.8694913,35.5426102,+9611490034,,,,,,2,osm,2026-05-02T16:02:09.618425Z
بنك بيروت,bank,Beirut,"شارع فؤاد شهاب, سن الفيل",33.8721561,35.5415018,+961 5 955 262,,https://www.bankofbeirut.com,True,,,3,osm,2026-05-02T16:02:09.618425Z
Byblos Bank,bank,Beirut,Fouad Shehab Street,33.8723424,35.5414423,+9611485241,,http://www.byblosbank.com.lb,True,,,3,osm,2026-05-02T16:02:09.618425Z
جورج نصر,department_store,Beirut,"62, شارع 111, الدكوانة",33.877589,35.5411033,+9611482462,,http://www.georgesnassr.com,True,,,3,osm,2026-05-02T16:02:09.618425Z
Securité Assurance,insurance,Beirut,Fouad Shehab Street,33.8751175,35.5412056,+9611517100,,https://www.securiteassurance.com/,True,,,3,osm,2026-05-02T16:02:09.618425Z
جمعية توحيد شباب لبنان,company,Mount Lebanon,Debbiyeh highway,33.6820714,35.4643042,+9617985210,,https://unitelebanonyouth.org,True,,,3,osm,2026-05-02T16:02:09.618425Z
معمل التغذية,company,Mount Lebanon,Debbiyeh Highway,33.6828797,35.4608286,+9615808808,,http://www.altaghziah.com/,True,,,3,osm,2026-05-02T16:02:09.618425Z
بوظة بشير,ice_cream,Beirut,"1 طريق, سنّ الفيل",33.8747824,35.5408333,+9611497110,,https://www.bachir.com,True,,,3,osm,2026-05-02T16:02:09.618425Z
Pistachio,fast_food,North Lebanon,شارع رشيد كرامة,34.445172,35.8222349,+9616222209,,,,,,2,osm,2026-05-02T16:02:09.618425Z
حركة مناهضة العنصريّة,ngo,Beirut,,33.8942421,35.4770955,+9611788025,,https://armlebanon.org/,True,,,2,osm,2026-05-02T16:02:09.618425Z
مركز خلدة لتحليل الطبية,hospital,Mount Lebanon,Autoroute Maritime,33.7762102,35.4721157,+961 5 801 971,,,,,,2,osm,2026-05-02T16:02:09.618425Z
رفيق بواب,company,Mount Lebanon,Debbiyeh,33.6826868,35.4622447,+9611340999,,http://raficbawabco.com,True,,,3,osm,2026-05-02T16:02:09.618425Z
مركز الدامور الطبي,clinic,Mount Lebanon,الدامور,33.7286373,35.4546761,+9615603603,,http://damour-mc.com,True,,,3,osm,2026-05-02T16:02:09.618425Z
Williams,hunting,Mount Lebanon,Okaibe,34.0566174,35.6438965,+9619444992,info@williams-lb.com,,,https://m.facebook.com/pg/Williamsoutdoor,,4,osm,2026-05-02T16:02:09.618425Z
مقهى المندلون,restaurant,Mount Lebanon,,33.9390658,35.5914226,+9614545411,,,,,,1,osm,2026-05-02T16:02:09.618425Z
الجامعة الأرمنيّة المتحدة,college,Mount Lebanon,برج حموﺪ‎‎,33.8870254,35.5480273,+961 1 241 541;+961 1 241 641,uac@armprelacylb.org,,,,,3,osm,2026-05-02T16:02:09.618425Z
مستشفى البرج,hospital,Mount Lebanon,Osman Street,33.8427333,35.5093247,+9611474718;+9611474719,,,,,,2,osm,2026-05-02T16:02:09.618425Z
مؤسّسة الدراسات الفلسطينيّة,ngo,Beirut,Beyrouth,33.8867475,35.4853725,+961 1 868 387,,https://www.palestine-studies.org/ar,True,,,3,osm,2026-05-02T16:02:09.618425Z
President Hotel,hotel,Mount Lebanon,jounieh,34.0001067,35.6456894,+9619935135,,,,,,2,osm,2026-05-02T16:02:09.618425Z
Committee of Friends of the Cedar Forests,ngo,North Lebanon,,34.2483283,36.0171333,+961 6 672 562,,,,,,1,osm,2026-05-02T16:02:09.618425Z
Margherita,restaurant,Mount Lebanon,,33.986053,35.6345658,+961 9 830 816,,https://www.pizzeriamargherita.com/,True,,,2,osm,2026-05-02T16:02:09.618425Z
المحطة الوقود إنترغاز,fuel,Mount Lebanon,"طريق أنطلياس بكفيا, الرابية",33.9161944,35.6025442,+9614406493,,https://intergas-sal.business.site/,True,,,3,osm,2026-05-02T16:02:09.618425Z
Banque fédérale du Liban,bank,South Lebanon,شارع صوراتي,33.8972694,35.4839563,+9611348507;+9611348509;+9611348509;,,,,,,2,osm,2026-05-02T16:02:09.618425Z
Microcity Computer Shop,computer,Beirut,,33.8664176,35.4871994,+9611835478,,https://gomicrocity.com,True,,,2,osm,2026-05-02T16:02:09.618425Z
مندي حضرموت,restaurant,Beirut,,33.8883238,35.4737799,+9611802233,,,,,,1,osm,2026-05-02T16:02:09.618425Z
Salon Rachid For Men,beauty,Beirut,Hamad,33.8717431,35.5042846,+9611651313,,,,,,2,osm,2026-05-02T16:02:09.618425Z
Dprime Solutions,advertising_agency,Mount Lebanon,"Mirna Chalouhi Highway, بوشرية",33.8888922,35.5542793,+9611255420,info@dprime-solutions.com,https://dprime-solutions.com/,False,,,4,osm,2026-05-02T16:02:09.618425Z
Lagace Hotel,hotel,Mount Lebanon,,33.9523557,35.6212937,+9619212975,,,,,,1,osm,2026-05-02T16:02:09.618425Z
كوزموس للسياحة والسفر,travel_agency,Beirut,جادة صائب سلام,33.8801593,35.4922366,+9611300153,cosmos.travel@hotmail.com,,,,,3,osm,2026-05-02T16:02:09.618425Z
ampm,convenience,Beirut,"Achrafieh-Charles Malek Avenue, Beyrouth",33.8920996,35.5194517,+961 1 320 140,,https://www.facebook.com/pg/ampmmarketbeirut/posts/,True,,,3,osm,2026-05-02T16:02:09.618425Z
Ambassade de Suisse,diplomatic,Beirut,"Avenue Fouad Chéhab, Beyrouth",33.8921387,35.5092005,+9611324129,,https://www.eda.admin.ch/beirut,True,,,3,osm,2026-05-02T16:02:09.618425Z
وزارة الاقتصاد والتجارة,government,Beirut,"شارع الأمير بشير, بيروت",33.8946722,35.505408,+9611982360,,https://economy.gov.lb,True,,,3,osm,2026-05-02T16:02:09.618425Z
وزارة المهجّرين,government,Beirut,"شارع عمر الداعوق, بيروت",33.898976,35.4992821,+961 1 366 373,,http://www.ministryofdisplaced.gov.lb/,True,,,3,osm,2026-05-02T16:02:09.618425Z
وزارة البيئة,government,Beirut,"مبنى اللعازارية, بيروت",33.8939979,35.505529,+961 1 976 555,,http://www.moe.gov.lb/,False,,,3,osm,2026-05-02T16:02:09.618425Z
وزارة العمل,government,Beirut,"بناية البراج، أوتوستراد الشياح, المشرفية",33.8589161,35.5128805,+961 1 556 803,,https://www.labor.gov.lb/,True,,,3,osm,2026-05-02T16:02:09.618425Z
وزارة الصناعة,government,Beirut,,33.8766683,35.5197294,+961 1 427006,,http://www.industry.gov.lb/,True,,,2,osm,2026-05-02T16:02:09.618425Z
وزارة الإعلام,government,Beirut,بيروت,33.8946499,35.4880549,+961 1 746 032,,http://www.ministryinfo.gov.lb,True,,,3,osm,2026-05-02T16:02:09.618425Z
وزارة الثقافة,government,Beirut,"شارع مدام كوري بناية حطب, الصنوبرة",33.8923719,35.4851012,+961 1 744 250,,http://culture.gov.lb/,True,,,3,osm,2026-05-02T16:02:09.618425Z
وزارة الزراعة,government,Beirut,,33.8570825,35.4913818,+961 1 849 618,,http://www.agriculture.gov.lb/,True,,,2,osm,2026-05-02T16:02:09.618425Z
وزارة الشباب والرياضة,government,Beirut,,33.8777215,35.5203451,+9611426658,,http://www.minijes.gov.lb,True,,,2,osm,2026-05-02T16:02:09.618425Z
Le Lycee National,school,Mount Lebanon,,33.79721,35.4926084,+9615805500,,http://le-lycee-national.edu.lb,True,,,2,osm,2026-05-02T16:02:09.618425Z
Cube 3DP,computer,Mount Lebanon,,33.860424,35.578392,+9614535745,,https://cube3dp.com,True,,,2,osm,2026-05-02T16:02:09.618425Z
أطباء بلا حدود,ngo,Beirut,"شارع الحمرا, Beyrouth",33.895611,35.4835183,+961 1 737 090,,https://www.msf.org/,True,,,3,osm,2026-05-02T16:02:09.618425Z
سوي,restaurant,Mount Lebanon,طريق برمانا الرئيسية,33.862721,35.5952574,+961 4 872 187,,,,,,2,osm,2026-05-02T16:02:09.618425Z
السفارة الإماراتية فى بيروت,diplomatic,Beirut,مار إلياس,33.8715937,35.4836751,+961 1 857 000,beirut@mofa.gov.ae,https://www.mofaic.gov.ae/missions/UAE-Missions-Abroad/UAE-Missions-Abroad-Details?countryId=4e740472-693c-4fec-88f8-c895fcdbf33b,True,,,4,osm,2026-05-02T16:02:09.618425Z
Escagrot,bakery,Beirut,,33.9003839,35.4908778,+9611363213,,,,,,1,osm,2026-05-02T16:02:09.618425Z
مطعم أهلا وسهلا فول وحمّص,restaurant,Beirut,Beyrouth,33.9003738,35.4910038,+9611363182,,,,,,2,osm,2026-05-02T16:02:09.618425Z
Hajj Medical Center - Dr. Marcel Hajj MD,doctors,Mount Lebanon,"Green Zone A building 71, النقاش",33.9286098,35.5966138,+9614520065,,https://linktr.ee/hajj.medical.center,True,,,3,osm,2026-05-02T16:02:09.618425Z
Fidar Beach House,restaurant,Mount Lebanon,,34.0978128,35.6510147,+9619477224,fidar.beach.house@gmail.com,,,,,2,osm,2026-05-02T16:02:09.618425Z
مستوصف ابن نفيس- البسطة,clinic,Beirut,"شارع صالح بن يحي, البسطة الفوقا",33.8858333,35.5043089,+961 1 664 242,ebnnafis.polyclinic@gmail.com,,,,,3,osm,2026-05-02T16:02:09.618425Z
الصليب الأحمر اللبناني,yes,Mount Lebanon,,33.984369,35.6375371,+9619546220,,,,,,1,osm,2026-05-02T16:02:09.618425Z
مركز الشهيد كمال جنبلاط للرعاية الصحية الأوليّة,centre,Mount Lebanon,برجا,33.6520149,35.4405591,+9617623129,,,,,,2,osm,2026-05-02T16:02:09.618425Z
جمعية الأمل والعطاء الخيرية,clinic,Mount Lebanon,برجا,33.6388946,35.4276132,+9617921080,amalataa@outlook.com,https://www.amalataa.org/,True,https://www.facebook.com/pg/Amal.Ataa.barja,,5,osm,2026-05-02T16:02:09.618425Z
Pharmacie Chebbo,pharmacy,Mount Lebanon,برجا,33.6388997,35.4273529,+9617623532,,,,,,2,osm,2026-05-02T16:02:09.618425Z
مركز كترمايا الصحي,doctors,Mount Lebanon,كترمايا,33.6140957,35.4546778,+9617971984,,,,,,2,osm,2026-05-02T16:02:09.618425Z
مستوصف الدبية الحكومي,clinic,Mount Lebanon,الدبية,33.6699859,35.4855178,+9617985019,,,,,,2,osm,2026-05-02T16:02:09.618425Z
مستوصف عماطور الخيري,clinic,Mount Lebanon,,33.6339235,35.6083179,+9615311237,,,,,,1,osm,2026-05-02T16:02:09.618425Z
أسواق سوبرماركت رمال,supermarket,Beirut,,33.8676088,35.5159935,+9611290101,,,,,,1,osm,2026-05-02T16:02:09.618425Z
بلدية بلونة,townhall,Mount Lebanon,بلونة,33.9531456,35.6718129,+9619231118,,,,https://www.facebook.com/pg/Ballouneh-1469356786625951/about/?ref=page_internal,,3,osm,2026-05-02T16:02:09.618425Z
بلدية دير الأحمر,townhall,Baalbek-Hermel,,34.1244787,36.1303094,+9618320144,,http://www.deirelahmar.gov.lb/,False,,,2,osm,2026-05-02T16:02:09.618425Z
Municipality of Zgharta - Ehden,townhall,North Lebanon,"Tripoli - Zgharta Rd, Zgharta",34.3993152,35.8913192,+9616660248;+9616660249,letters@zgharta.gov.lb,http://www.zgharta.gov.lb/,False,https://www.facebook.com/MunicipalityofZghartaEhden/,https://www.instagram.com/municipality_of_zgharta_ehden/,5,osm,2026-05-02T16:02:09.618425Z
Mairie d'Hadat,townhall,Mount Lebanon,"Boulevard Camille Chamoun, Hadat",33.843575,35.5288172,+961 5 466 923;+961 5 462 612;+961 5 466 417,,https://www.hadat.gov.lb/,False,https://www.facebook.com/Hadat-Municipality-1548125145460720/,,4,osm,2026-05-02T16:02:09.618425Z
Municipality of Anjar,townhall,Bekaa,Chemin de la Municipalité,33.7262572,35.9301846,+9618800252;+9618820222,zahle-maallaka@idm.net.lb,http://zahle.gov.lb,True,https://www.facebook.com/zahlemunicipality,,5,osm,2026-05-02T16:02:09.618425Z
Locanda Corsini,restaurant,Mount Lebanon,,33.9082085,35.6801,+961 4 982 689,,,,,,1,osm,2026-05-02T16:02:09.618425Z
Rouhana Jewelry,jewelry,Mount Lebanon,طريق انطلياس بكفيّا,33.9203196,35.6297594,+961 4 927 055,info@rouhanajewellery.com,https://www.rouhana.co/,False,,,4,osm,2026-05-02T16:02:09.618425Z
بإدارة الصيدلية رنا حسن حاوي,pharmacy,South Lebanon,,33.3397471,35.3729737,+9617540423,,,,,,1,osm,2026-05-02T16:02:09.618425Z
خضروات حجيج,greengrocer,South Lebanon,"بريقع الطريق العام, بريقع",33.3397812,35.3732063,+9617542302,,,,,,2,osm,2026-05-02T16:02:09.618425Z
Institute Joujou,beauty,Beirut,,33.8697445,35.5174147,+9611390249,,,,,,1,osm,2026-05-02T16:02:09.618425Z
مؤسسة إلمو,hardware,Beirut,,33.8695314,35.5181833,+9611381767,,,,,,1,osm,2026-05-02T16:02:09.618425Z
PrintCut,copyshop,Beirut,,33.8695289,35.5192624,+9611281199,sales@printcut.net,https://printcut.net,True,,,3,osm,2026-05-02T16:02:09.618425Z
فرن مناقيش نيقولا,bakery,Beirut,,33.8703469,35.5171277,+9611385954,,,,,,1,osm,2026-05-02T16:02:09.618425Z
فرن الوردة البيضاء,bakery,Beirut,,33.8703256,35.5228158,+961 1 286 367,,,,,,1,osm,2026-05-02T16:02:09.618425Z
زهر الليمون,convenience,Beirut,,33.8940606,35.4925564,+9611355223,,,,,,1,osm,2026-05-02T16:02:09.618425Z
تعاونية سان تيريز,supermarket,Beirut,,33.8707705,35.5202901,+9611281870;+9611280881,,,,,,1,osm,2026-05-02T16:02:09.618425Z
بعثة الاتحاد الأوروبي,diplomatic,Beirut,"شارع 62, بيروت",33.8949783,35.4993657,+961 1 956 900,delegation-lebanon@eeas.europa.eu,https://eeas.europa.eu/delegations/lebanon,True,https://www.facebook.com/EUinLebanon/,https://www.instagram.com/euinlebanon/,5,osm,2026-05-02T16:02:09.618425Z
Taanayel General Hospital,hospital,Bekaa,,33.7941808,35.8777565,+9618545299,,,,,,1,osm,2026-05-02T16:02:09.618425Z
Kassab Hospital,hospital,South Lebanon,,33.568745,35.3916326,+9617723900;+9617723700,info@kassabhospital.com,https://kassabhospital.com,True,,,3,osm,2026-05-02T16:02:09.618425Z
مستشفى الخير,hospital,North Lebanon,,34.482505,35.9405413,+9616461444,,,,,,1,osm,2026-05-02T16:02:09.618425Z
مستشفى الحنان,hospital,North Lebanon,,34.4434639,35.8342695,+961 6 200 527,,,,,,1,osm,2026-05-02T16:02:09.618425Z
Orange Nassau Governmental Hospital,hospital,North Lebanon,,34.4425526,35.8384055,+9616428200,info@ongh.org,,,,,2,osm,2026-05-02T16:02:09.618425Z
Batrouniyat,restaurant,North Lebanon,Dawra Street,34.2468973,35.661628,+9616744510,info@batrouniyat.org,http://www.batrouniyat.org,True,,,4,osm,2026-05-02T16:02:09.618425Z
سفارة الجزائر,diplomatic,Beirut,,33.8669168,35.4834715,+9611826712,,,,,,1,osm,2026-05-02T16:02:09.618425Z
Karantina Governmental Hospital,hospital,Beirut,,33.9025367,35.5299998,+9611442110,,,,https://www.facebook.com/pages/category/Local-Business/Hospital-beirut-governmental-karantina-569737699791591,,2,osm,2026-05-02T16:02:09.618425Z
Tatari Hospital,hospital,Baalbek-Hermel,,34.0107926,36.2057555,+9618370799,,,,https://www.facebook.com/Top.hospital80,,2,osm,2026-05-02T16:02:09.618425Z
Medical 2000 Hospital,hospital,Mount Lebanon,,33.8031637,35.5172941,+9615432525,,,,,,1,osm,2026-05-02T16:02:09.618425Z
4 ways,restaurant,South Lebanon,"toul - dweir main road, nabatieh, toul",33.3846844,35.4442651,+9617765095,,,,,,2,osm,2026-05-02T16:02:09.618425Z
Sushi Lovers,restaurant,Beirut,شارع روزفلت,33.895081,35.4855733,+9611354040,,,,,,2,osm,2026-05-02T16:02:09.618425Z
Anthony's,restaurant,Mount Lebanon,,34.0935965,35.6513067,+9619479189,,,,,,1,osm,2026-05-02T16:02:09.618425Z
Municipality of Saghbine,townhall,Mount Lebanon,,33.6124943,35.6995284,+9618670570,,,,,,1,osm,2026-05-02T16:02:09.618425Z
Municipality of Ain Zebde,townhall,Mount Lebanon,,33.6210069,35.7031932,+9618670405,,,,,,1,osm,2026-05-02T16:02:09.618425Z
Al Halabi,restaurant,Mount Lebanon,طريق ضبية القديم,33.9168444,35.5900819,+961 4 523 555,,,,,,2,osm,2026-05-02T16:02:09.618425Z
Stars Tech,telecommunication,Beirut,"شارع خليل مطران, Beyrouth",33.8646973,35.4902986,+961 1 820 003,support1@starstech-sys.com,https://www.starstech-sys.com/,True,,,4,osm,2026-05-02T16:02:09.618425Z
Parfumerie Paloma,perfumery,Beirut,"new trad street, برج حموﺪ",33.8895788,35.5421225,+9611249951,,,,,,2,osm,2026-05-02T16:02:09.618425Z
Techpunto IT Solutions,computer,Beirut,"شارع أمين منيمنة, بيروت",33.8936078,35.4849889,+9611743396,info@techpunto.com,http://www.techpunto.com,True,,,4,osm,2026-05-02T16:02:09.618425Z
منتجات رفيق الرشيدي,pastry,Mount Lebanon,,33.8936905,35.5645862,+961 1 901 937,,,,https://www.facebook.com/SamerRaficAlRashidiProducts/,https://www.instagram.com/raficalrachidiproducts/,2,osm,2026-05-02T16:02:09.618425Z
ماركت شادي مسيح,supermarket,North Lebanon,,34.3586111,35.7328103,+9616543886,,,,,,1,osm,2026-05-02T16:02:09.618425Z
عيادة الدكتور بو حبيب,clinic,Mount Lebanon,شارع 12,33.9114217,35.5842732,+961 4 416 979,neurologist@inbox.com,http://www.bouhabib.narod.ru/,True,https://www.facebook.com/bouhabibclinic/,,5,osm,2026-05-02T16:02:09.618425Z
The Parisian Hotel,hotel,Beirut,,33.9000978,35.4919177,+9611361999,info@theparisianhotel.com,https://www.theparisianhotel.com,True,,,3,osm,2026-05-02T16:02:09.618425Z
Galerie Janine Rubeiz,gallery,Beirut,"جادة الجنرال ديغول, الروشة",33.8879535,35.4736033,+961 1 868 290,,,,,,2,osm,2026-05-02T16:02:09.618425Z
Mum & I,restaurant,Beirut,,33.8783448,35.5159861,+9611425650,,,,https://www.facebook.com/MumAndI,,2,osm,2026-05-02T16:02:09.618425Z
Café عصير صقر,cafe,Beirut,"شارع بشارة الخوري, بيروت",33.8850311,35.506964,+961 1 632 010,,,,,,2,osm,2026-05-02T16:02:09.618425Z
السفارة اليابانية,diplomatic,Beirut,,33.895585,35.4997794,+9611989751,,https://www.lb.emb-japan.go.jp,True,,,2,osm,2026-05-02T16:02:09.618425Z
سفارة فنلندا,diplomatic,Beirut,"جادة شارل مالك, بيروت",33.892446,35.5124658,+961 1 218 860,,https://finlandabroad.fi/web/lbn,True,,,3,osm,2026-05-02T16:02:09.618425Z
Sushi Star,restaurant,Mount Lebanon,,33.8594178,35.558779,+9611683689,,,,,,1,osm,2026-05-02T16:02:09.618425Z
سفارة سلوفاكيا,diplomatic,Beirut,"464, شارع كليمنصو, القنطاري",33.8979807,35.4930401,+961 1 367 422,emb.beirut@mzv.sk,https://www.mzv.sk/web/bejrut,True,,,4,osm,2026-05-02T16:02:09.618425Z
future - المستقبل,supermarket,Mount Lebanon,,33.7840271,35.5561433,+9615273558,,,,,,1,osm,2026-05-02T16:02:09.618425Z
19 Restaurant,restaurant,Mount Lebanon,,33.7845928,35.4764504,+9615807800,,,,,,1,osm,2026-05-02T16:02:09.618425Z
The J Hotel & Spa,hotel,Beirut,,33.8955401,35.4812196,+9611344626,,,,,,1,osm,2026-05-02T16:02:09.618425Z
Monte Cassino,hotel,Mount Lebanon,,34.0140298,35.638833,+9619852600,,,,,,1,osm,2026-05-02T16:02:09.618425Z
Le Montagnou,restaurant,Bekaa,,33.9936095,35.831913,+961 9 341 441,,http://www.montagnou.com/,False,https://www.facebook.com/LeMontagnou/,,3,osm,2026-05-02T16:02:09.618425Z
Librairie Antoine Hamra,books,Beirut,,33.8955567,35.4821392,+9611341470,,https://www.antoineonline.com/,True,,,2,osm,2026-05-02T16:02:09.618425Z
Ka3kaya,restaurant,Beirut,,33.8962349,35.4820078,+961 1 354 555,,https://www.ka3kaya.com/,True,,,2,osm,2026-05-02T16:02:09.618425Z
Al Irfan Hospital,hospital,Mount Lebanon,,33.6752712,35.5922749,+9615501678,,,,,,1,osm,2026-05-02T16:02:09.618425Z
الجمية اللبنانية لرعاية المعوقين,clinic,South Lebanon,,33.4327742,35.3092739,+961 7 441 010,lwah@lwah.org.lb,,,,,2,osm,2026-05-02T16:02:09.618425Z
فندق البحار,hotel,Mount Lebanon,,34.0290095,35.6257321,+9619855858,,,,,,1,osm,2026-05-02T16:02:09.618425Z
سفارة بلغاريا,diplomatic,Beirut,,33.858256,35.5442806,+961 5 452 883,,https://www.mfa.bg/embassies/lebanon,True,,,2,osm,2026-05-02T16:02:09.618425Z
Joy Venue,events_venue,Mount Lebanon,,34.097262,35.6547602,+9619479498,,,,,https://www.instagram.com/joyvenue/,2,osm,2026-05-02T16:02:09.618425Z
Chateau Muzar,wine,Mount Lebanon,,34.0163495,35.6699185,+961 9 925 127,,https://www.chateaumusar.com/,True,,,2,osm,2026-05-02T16:02:09.618425Z
Gelato Show,ice_cream,Mount Lebanon,,33.9887408,35.6413694,+9619642250,,,,,,1,osm,2026-05-02T16:02:09.618425Z
جمعية امبرايس,clinic,Beirut,شارع ربيز,33.8960082,35.4852403,+9611341941,,,,,,2,osm,2026-05-02T16:02:09.618425Z
سفارة الأرجنتين,diplomatic,Beirut,"161, شارع سرسق, بيروت",33.8933915,35.5148967,+961 1 210 803,,https://elbno.cancilleria.gob.ar,True,,,3,osm,2026-05-02T16:02:09.618425Z
Al Hamshari Hospital,hospital,South Lebanon,,33.5476708,35.3862615,+9617724881,,,,,,1,osm,2026-05-02T16:02:09.618425Z
Pepe Fishermans Club,restaurant,North Lebanon,,34.1216154,35.6440741,+961 9 540 213,,,,,,1,osm,2026-05-02T16:02:09.618425Z
سفارة باراغواي,diplomatic,Beirut,,33.8558932,35.5404121,+961 5 458 501,,,,,,1,osm,2026-05-02T16:02:09.618425Z
Nahr Al Janna,hotel,Mount Lebanon,,33.9459815,35.6152664,+961 4 930 200,,,,,,1,osm,2026-05-02T16:02:09.618425Z
سفارة نيجيريا,diplomatic,Beirut,,33.8651205,35.488818,+961 1 857 614,,,,,,1,osm,2026-05-02T16:02:09.618425Z
سفارة تايلند,diplomatic,Beirut,,33.8596499,35.5426047,+961 5 951 708,,,,,,1,osm,2026-05-02T16:02:09.618425Z
سفارة السويد,diplomatic,Beirut,,33.9004228,35.502626,+961 1 951 200,,,,,,1,osm,2026-05-02T16:02:09.618425Z
Embassy of Sudan,diplomatic,Beirut,,33.8920305,35.4828897,+961 1 353 270,,,,,,1,osm,2026-05-02T16:02:09.618425Z
Hôpital Haroun,hospital,Mount Lebanon,,33.9006645,35.5717805,+961 1 897 300;+961 1 897 301;+961 1 897 302;+961 1 897 303;+961 1 897 304,,,,https://m.facebook.com/profile.php?id=376596812392902,,2,osm,2026-05-02T16:02:09.618425Z
Loris,restaurant,Beirut,شارع باستور,33.8959295,35.5158789,+9611567568,,https://www.loris.restaurant/,False,https://m.facebook.com/Loris.Restaurant/,,4,osm,2026-05-02T16:02:09.618425Z
Al Hayat Hospital,hospital,Beirut,,33.8578842,35.5251785,+9611546200,,,,https://www.facebook.com/AL-Hayat-Hospital-557872267703366/,,2,osm,2026-05-02T16:02:09.618425Z
Dr. Haitham AlFakih Dental Clinic,dentist,Mount Lebanon,,33.8121453,35.6091416,+9615551725,drfakih@hotmail.com,,,,,2,osm,2026-05-02T16:02:09.618425Z
فندق باي ان,hotel,Mount Lebanon,طريق البحر,34.0069342,35.6467006,+9619854212,,,,,,2,osm,2026-05-02T16:02:09.618425Z
Clinique AS Ahdab,clinic,North Lebanon,,34.4405531,35.8352231,+9616441442,,,,,,1,osm,2026-05-02T16:02:09.618425Z
Cedarland Hotel,hotel,Beirut,,33.8973084,35.4839301,+9611340233;+9611340234,,,,,,1,osm,2026-05-02T16:02:09.618425Z
Mashhour,restaurant,Bekaa,,33.5217675,35.8265924,+9618590199,,,,,,1,osm,2026-05-02T16:02:09.618425Z
Empire Entertainment,company,Beirut,"طريق الشام, بيروت",33.8862577,35.508953,+9611616600,,https://www.empiremena.com/,True,,,3,osm,2026-05-02T16:02:09.618425Z
SHOO clean,laundry,Mount Lebanon,,33.9256613,35.6366255,+9614910647,,,,,,1,osm,2026-05-02T16:02:09.618425Z
رصيف بيروت,restaurant,Beirut,"شارع جبر ضومط, بيروت",33.8973745,35.480822,+9611340081,,,,,,2,osm,2026-05-02T16:02:09.618425Z
MO ELECTRIC,electrical,Beirut,"maroun misk street, Beyrouth",33.8599786,35.5161215,+9611273190,moelectriclb@gmail.com,,,,,3,osm,2026-05-02T16:02:09.618425Z
Restaurant Ya Hala,fast_food,Akkar,,34.393133,36.3852545,+961 8 200 375,,,,,,1,osm,2026-05-02T16:02:09.618425Z
Pâte à Choux,pastry,Mount Lebanon,,33.9183175,35.5895693,+9614 414 611,,,,,,1,osm,2026-05-02T16:02:09.618425Z
Ni,restaurant,Mount Lebanon,,33.9268789,35.5878772,+9614520772,,,,,,1,osm,2026-05-02T16:02:09.618425Z
IRAP,educational_institution,Mount Lebanon,,33.9207373,35.6441653,+961 4 925 025,,http://iraplb.org/,False,,,2,osm,2026-05-02T16:02:09.618425Z
وسليز,general,Mount Lebanon,,33.9068878,35.5799338,+9614714094,,,,,,1,osm,2026-05-02T16:02:09.618425Z
Municipality of Jeita,townhall,Mount Lebanon,,33.9542675,35.6374639,+961 9 234 218,,,,,,1,osm,2026-05-02T16:02:09.618425Z
Tawlet Beit El Qamar,restaurant,Mount Lebanon,,33.7048273,35.5779384,+9615511722,info@beitelqamar.com,,,,,2,osm,2026-05-02T16:02:09.618425Z
Patisserie Main Sucrée,pastry,Mount Lebanon,"شارع 52, ذوق الخراب",33.9454635,35.5980162,+961 4 541 060,,https://patisserie-main-sucree.business.site/,True,https://m.facebook.com/mainsucree/,https://www.instagram.com/patisseriemainsucree/,4,osm,2026-05-02T16:02:09.618425Z
Hotel Le Noble,hotel,Mount Lebanon,,33.946732,35.5979426,+961 4 542 750,,https://hotellenoble.com/,False,,,2,osm,2026-05-02T16:02:09.618425Z
مطعم البندقية الإيطالي,restaurant,Beirut,"شارع 8-05, بيروت",33.8713028,35.5359178,+961 1 516 540,,,,https://www.facebook.com/VeneziaRistoranteItaliano,https://www.instagram.com/veneziaristoranteitaliano/,3,osm,2026-05-02T16:02:09.618425Z
Aphrodite Hotel,hotel,Mount Lebanon,,34.018783,35.6315951,+961 9 850 400,,,,https://www.facebook.com/aphrodite1.hotel/,,2,osm,2026-05-02T16:02:09.618425Z
Romance Hotel,hotel,Mount Lebanon,,34.0194722,35.6318405,+961 9 855 258,,,,,https://www.instagram.com/romancehotellb/,2,osm,2026-05-02T16:02:09.618425Z
Grand Gabriel Hotel,hotel,Mount Lebanon,,33.9663436,35.6094226,+9619215222,,,,,,1,osm,2026-05-02T16:02:09.618425Z
Ana Beirut,restaurant,Mount Lebanon,,33.9186162,35.586471,+9614520280,,,,,,1,osm,2026-05-02T16:02:09.618425Z
Le Cerfvolant Beach Restaurant,restaurant,Mount Lebanon,,34.0590867,35.6428933,+96129445679,,,,,,1,osm,2026-05-02T16:02:09.618425Z
Municipality of Roumieh,townhall,Mount Lebanon,,33.881628,35.6124052,+9614860002,,,,,,1,osm,2026-05-02T16:02:09.618425Z
Municipality of Rmeich,townhall,South Lebanon,,33.0824457,35.3670917,+9617470081,,,,,,1,osm,2026-05-02T16:02:09.618425Z
AM Bank,bank,Mount Lebanon,,33.9172084,35.5843654,+9614444590,,,,,,1,osm,2026-05-02T16:02:09.618425Z
Municipality of Bcharri,townhall,North Lebanon,,34.2515288,36.0046019,+9616672688,,,,,,1,osm,2026-05-02T16:02:09.618425Z
Municipality of Amchit,townhall,North Lebanon,,34.1482643,35.6460375,+9619620483,,,,,,1,osm,2026-05-02T16:02:09.618425Z
Wunderman Thompson,company,Beirut,"47, شارع البطريرك حويك, بيروت",33.8990195,35.5028618,+9611973030,,https://www.wundermanthompson.com/,True,,,3,osm,2026-05-02T16:02:09.618425Z
بلدية الكحالة,townhall,Mount Lebanon,الكحالة,33.8263545,35.5873132,+9615769620,,,,,,2,osm,2026-05-02T16:02:09.618425Z
Municipality of Nammoura,townhall,Mount Lebanon,,34.0517683,35.6676105,+9619446555,,,,,,1,osm,2026-05-02T16:02:09.618425Z
UMAM D&R,ngo,Beirut,شارع حارة حريك,33.8585124,35.5080213,+961 1 553 604,info@umam-dr.org,https://umam-dr.org/,True,,,4,osm,2026-05-02T16:02:09.618425Z
Garage Riad El Hayek,car_repair,Mount Lebanon,"Aboujaoude industrial center, Naher El Mot",33.8934328,35.5756791,+9611890661,,https://garageriadhayek.wordpress.com/,True,,,3,osm,2026-05-02T16:02:09.618425Z
Billy Boyz,restaurant,Mount Lebanon,,33.9558487,35.6107372,+961 9 222 062,,,,,,1,osm,2026-05-02T16:02:09.618425Z
iSTYLE,computer,Beirut,,33.8614187,35.5292788,+961 1 283 989,,,,,,1,osm,2026-05-02T16:02:09.618425Z
Patchi,chocolate,Mount Lebanon,,34.0122961,35.6483938,+961 9 855 925,,,,,,1,osm,2026-05-02T16:02:09.618425Z
Sinno Trading Co SAL,hardware,Beirut,,33.8665744,35.4882994,+9611821821,,,,,,1,osm,2026-05-02T16:02:09.618425Z
Le Bon,pastry,Mount Lebanon,,34.0207753,35.661353,+9619926550,,,,,,1,osm,2026-05-02T16:02:09.618425Z
لا بلازير - حلويات,confectionery,Mount Lebanon,Saqiet El-Misk - Bikfaya - Rue Principale,33.9185313,35.6771851,+961 4 981 423,,,,,,2,osm,2026-05-02T16:02:09.618425Z
Das Küche,restaurant,Beirut,,33.8971117,35.5245777,+961 1 442 887,,https://daskuche.me/,True,,,2,osm,2026-05-02T16:02:09.618425Z
Delight,restaurant,Mount Lebanon,Qalaa,33.8382953,35.7333625,+9615530577,,https://pizzadelight-hammana.business.site/?utm_source=gmb&utm_medium=referral,True,,,3,osm,2026-05-02T16:02:09.618425Z
Pertutti,restaurant,Mount Lebanon,,33.853203,35.5452282,+961 5 457 000,,,,,,1,osm,2026-05-02T16:02:09.618425Z
Owap association,company,North Lebanon,,34.4548322,35.8111426,+961 6 426 997,owap10452@gmail.com,,,,,2,osm,2026-05-02T16:02:09.618425Z
Institut Français - المركز الفرنسي,educational_institution,South Lebanon,حي البياض,33.3827362,35.4810143,+961 7 764 398,,https://institutfrancais-liban.com,True,,,3,osm,2026-05-02T16:02:09.618425Z
Mr. International,restaurant,Beirut,,33.8747538,35.5395521,+9611488381,,,,,,1,osm,2026-05-02T16:02:09.618425Z
Pet Palace,pet_grooming,Beirut,شارع جورج حداد,33.8927332,35.5099196,+961 1 218 245,,,,,,2,osm,2026-05-02T16:02:09.618425Z
EcoConsulting,company,Beirut,شارع جورج حداد,33.8937446,35.509428,+9611971266,info@ecoconsulting.net,http://ecoconsulting.net,True,The-Circular-Hub-112887496744002,thecircularhub,5,osm,2026-05-02T16:02:09.618425Z
Globecast Near & Middle East,company,Beirut,,33.8765011,35.5174846,+9611395111,,https://www.globecast.com/,True,,,2,osm,2026-05-02T16:02:09.618425Z
عمر الفحل,doityourself,Beirut,Rue Imam Moussa Sader,33.8599721,35.4865854,+9611852134,,,,,,2,osm,2026-05-02T16:02:09.618425Z
Siège social SIDC,community_centre,Beirut,Street 5,33.8761301,35.534709,+9611482428,,https://sidc-lebanon.org/,True,,,3,osm,2026-05-02T16:02:09.618425Z
Colortek Paints & Wallpapers,interior_decoration,Mount Lebanon,شارع حنكاش الجديد,33.89225,35.5573581,+9611242812,,https://www.colortek.eu/,True,,,3,osm,2026-05-02T16:02:09.618425Z
EDCOLebanon s.a.r.l,company,Mount Lebanon,Antelias,33.9185042,35.5895386,+9614521481,,,,,,2,osm,2026-05-02T16:02:09.618425Z
Whish Money,money_transfer,Beirut,ساحة ساسين,33.8870653,35.5212786,+9611788999,,,,,,2,osm,2026-05-02T16:02:09.618425Z
The Bros,fast_food,Beirut,شارع أرمينيا,33.8972754,35.5271384,+9611570297,,,,thebroslb,,3,osm,2026-05-02T16:02:09.618425Z
صيدلية سان جورج,pharmacy,Beirut,شارع مستشفى الروم,33.8945438,35.5247962,+9611582997,,,,,,2,osm,2026-05-02T16:02:09.618425Z
Nextcare,insurance,Beirut,,33.8807239,35.5386498,+961 1 504 000,lebanon@nextcarehealth.com,https://www.nextcarehealth.com,True,,,3,osm,2026-05-02T16:02:09.618425Z
Seven Moons School,school,Mount Lebanon,,33.843026,35.5096797,+9611474662,,,,,,1,osm,2026-05-02T16:02:09.618425Z
Albayan High School,school,Mount Lebanon,,33.8446614,35.5173118,+961 1 472 158,,,,,,1,osm,2026-05-02T16:02:09.618425Z
مشاويش,restaurant,Beirut,شارع ألكسندر فليمنغ,33.8974146,35.5250774,+9611449390,,,,,mashawish.grill,3,osm,2026-05-02T16:02:09.618425Z
Frunch Eatery - Mar Mikhael,fast_food,Beirut,شارع أرمينيا,33.8974472,35.5270752,+9611403303,,http://frunch-eatery.com,True,,,3,osm,2026-05-02T16:02:09.618425Z
مركز المفتاح فاروج,key_cutter,Beirut,شارع 92,33.8906978,35.5361578,+9611257234,,,,,,2,osm,2026-05-02T16:02:09.618425Z
المفوضية السامية للأمم المتحدة لشؤون اللاجئين,ngo,Beirut,,33.872332,35.4917509,+961 1 849 201,,,,,,1,osm,2026-05-02T16:02:09.618425Z
Upper Room,restaurant,Mount Lebanon,طريق انطلياس بكفيّا,33.9156251,35.591961,+9613110200,,,,upperroomleb,upperroomlrbanon,3,osm,2026-05-02T16:02:09.618425Z
Keys'n Chords Music Academy,musical_instrument,Beirut,شارع تامر ملاط,33.8848372,35.4853828,+961 1 795 914,,https://keysncords.com,True,,,3,osm,2026-05-02T16:02:09.618425Z
صيدلية شعار,pharmacy,Beirut,شارع بشارة الخوري,33.8858922,35.506538,+9611663221,,,,,,2,osm,2026-05-02T16:02:09.618425Z
Brush Art Paints,doityourself,Beirut,شارع دار الفتوى,33.8848323,35.4902253,+961 1 706 773,,https://www.brushart.co/,True,,,3,osm,2026-05-02T16:02:09.618425Z
Tony,restaurant,Mount Lebanon,,33.9128717,35.6770346,+961 4 985 959,,,,,,1,osm,2026-05-02T16:02:09.618425Z
IECD Beirut,ngo,Mount Lebanon,شارع 506,33.843469,35.5350767,+9611556338,,https://www.iecd.org/,True,,,3,osm,2026-05-02T16:02:09.618425Z
فرن صفوان الأصلي,bakery,Beirut,طريق السريع بيروت-صيدا,33.8459623,35.4852017,+9611450143,,,,,,2,osm,2026-05-02T16:02:09.618425Z
Chez Angelo,restaurant,Beirut,,33.8892169,35.517097,+961 1 587 550,,,,,,1,osm,2026-05-02T16:02:09.618425Z
بوتيك متحف الصابون في صيدا,gift,Beirut,,33.892583,35.5171468,+961 3 88 76 88,,https://sidonia.shop/,True,,,2,osm,2026-05-02T16:02:09.618425Z
بلدية بشامون,townhall,Mount Lebanon,شارع الاستقلال,33.7816733,35.5306663,+9615270981,,,,,,2,osm,2026-05-02T16:02:09.618425Z
توتال بشامون,fuel,Mount Lebanon,Rue Maktabet El Bachir,33.7902955,35.497811,+9615813850,,https://totalenergies.com.lb/en,True,,,3,osm,2026-05-02T16:02:09.618425Z
قهوة يونس,cafe,Beirut,"شارع بعلبك, بيروت",33.8949145,35.4792531,+9611750975,,,,,,2,osm,2026-05-02T16:02:09.618425Z
Allcare Pharmacy,pharmacy,Mount Lebanon,,33.8519173,35.5487747,+9615457037,,,,,,1,osm,2026-05-02T16:02:09.618425Z
FS Office Supplies,electronics,Mount Lebanon,,33.8523178,35.5489502,+961 5 950 180,,https://www.fsofficesupplies.net/,True,,,2,osm,2026-05-02T16:02:09.618425Z
ATLAI,gift,Mount Lebanon,,33.8519402,35.5466003,+961 5 951 172,,https://www.altailebanon.com/,True,,,2,osm,2026-05-02T16:02:09.618425Z
The Bike Shop,bicycle,Mount Lebanon,طريق ميرنا الشالوحي,33.8939734,35.5611015,+9611902393,,,,thebikeshoplb,thebikeshoplb,3,osm,2026-05-02T16:02:09.618425Z
الحويك,doityourself,Mount Lebanon,Rue Ste. Mere Teresa,33.8886998,35.5547164,+9611880271,info@howayek.con,https://howayek.com,True,,,4,osm,2026-05-02T16:02:09.618425Z
Chez Gio Gio,restaurant,Bekaa,Zahlé,33.8398512,35.9143537,+961 8 822 884,,,,https://www.facebook.com/chezgio/,https://www.instagram.com/chezgiogio/,3,osm,2026-05-02T16:02:09.618425Z
Uniun,restaurant,Beirut,,33.8987,35.4837859,+961 1 444 514,,,,,,1,osm,2026-05-02T16:02:09.618425Z
The HealthQuarters,clinic,Beirut,شارع محمد بيضون,33.8854537,35.5113041,+961 1 425 182,,http://www.thehealthquarters.co/,True,,,3,osm,2026-05-02T16:02:09.618425Z
La Soltech,doityourself,Beirut,شارع برج أبي حيدر,33.8828152,35.4985628,+9611706310,,,,,,2,osm,2026-05-02T16:02:09.618425Z
ملحمة الحاج عوني لبدة وأولاده,restaurant,North Lebanon,الميناء,34.4514979,35.8165592,+9616601925,,,,,,2,osm,2026-05-02T16:02:09.618425Z
بلدية بعلبك,townhall,Baalbek-Hermel,ساحة السراي,34.0053048,36.2094252,+9618370214,,https://baalbeck-municipality.org/,True,,,3,osm,2026-05-02T16:02:09.618425Z
حلويات الجبّة,confectionery,Baalbek-Hermel,,34.0061034,36.2081608,+9618373824,,,,aljebbeh,,2,osm,2026-05-02T16:02:09.618425Z
Seray,restaurant,Beirut,,33.8988683,35.5006813,+961 1 995 511,,,,,,1,osm,2026-05-02T16:02:09.618425Z
أفران الزمار,bakery,Bekaa,Route Vallée Ferzol,33.8625579,35.9518654,+9618951222,,,,,,2,osm,2026-05-02T16:02:09.618425Z
صيدلية الربيع,pharmacy,Bekaa,الغربي,33.891753,35.9875673,+961 8 910 818,,,,,,2,osm,2026-05-02T16:02:09.618425Z
Chococrepe,confectionery,Bekaa,Route Vallée Ferzol,33.8670264,35.9571511,+9618951722,,,,,,2,osm,2026-05-02T16:02:09.618425Z
New Foodies,supermarket,Bekaa,Route Vallée Ferzol,33.8577726,35.9430877,+9618951379,,,,,,2,osm,2026-05-02T16:02:09.618425Z
سوبرماركت البركة,supermarket,Bekaa,الغربي,33.8918749,35.987577,+9618913217,,,,,,2,osm,2026-05-02T16:02:09.618425Z
مطبعة الصوفي,copyshop,North Lebanon,شارع رياض الصلح,34.4369456,35.8343355,+961 6 439 144,,,,,,2,osm,2026-05-02T16:02:09.618425Z
Mamounia,restaurant,Mount Lebanon,,33.8997276,35.5733992,+9611888326,,,,,,1,osm,2026-05-02T16:02:09.618425Z
Deek'Matic,restaurant,Mount Lebanon,"Main road, Qornet Chehwen",33.9208523,35.6337942,+961 4 922 161,,https://menu.omegasoftware.ca/deekmatic,True,,,3,osm,2026-05-02T16:02:09.618425Z
Elma Wedding Cars,car_rental,Mount Lebanon,,33.9200322,35.6462608,+961 4 927 225,,,,,,1,osm,2026-05-02T16:02:09.618425Z
مطعم النهر,restaurant,Bekaa,,33.9636787,35.7798447,+961 4 288 197,,,,,,1,osm,2026-05-02T16:02:09.618425Z
ملتقى السفير,cafe,Beirut,,33.893587,35.4850665,+96181857880,,,,,multaqa.beirut,2,osm,2026-05-02T16:02:09.618425Z
ماركت أنثني,convenience,Bekaa,,33.8544401,35.8949839,+961 8 800 383,,,,,,1,osm,2026-05-02T16:02:09.618425Z
Kassab Resto & Butchery,restaurant,Beirut,طريق دمشق,33.8540615,35.520703,+961 1 278 222,,,,,,2,osm,2026-05-02T16:02:09.618425Z
بارون شانت,restaurant,Mount Lebanon,أتستراد البحر,33.7845609,35.4765459,+9615807803;+96171119934,,,,,,2,osm,2026-05-02T16:02:09.618425Z
Lebanese Museum Of The Heart Of The Rock,museum,Bekaa,,33.8662544,35.8659986,+961 8 812 576,,,,,,1,osm,2026-05-02T16:02:09.618425Z
إم تي إس سي,metal_construction,Mount Lebanon,جادة كميل شمعون,33.8439375,35.4921875,+9611452399,,https://www.mtsclb.com/ar/Home,True,,,3,osm,2026-05-02T16:02:09.618425Z
Antranik Baljian and Sons (ABS Metals),metal_construction,Beirut,شارع 81,33.8974125,35.5406719,+9611242605,,https://www.absmetals.com/en/Home,True,,,3,osm,2026-05-02T16:02:09.618425Z
Fakhani Fresh,supermarket,South Lebanon,طريق صيدا القديمة,33.7981973,35.4856399,+9615803111,,,,,,2,osm,2026-05-02T16:02:09.618425Z
ديوان ماركت,supermarket,South Lebanon,طريق صيدا القديمة,33.797652,35.4851554,+961 5 810 850,,http://www.diwanhypermarket.com,True,,,3,osm,2026-05-02T16:02:09.618425Z
مؤسسة حسن الجمل التجارية,appliance,Beirut,شارع برج أبي حيدر,33.8818686,35.497892,+9611307022,,https://aljamaltrading.com,True,,,3,osm,2026-05-02T16:02:09.618425Z
تحت الشجرة,restaurant,Beirut,شارع جان دارك,33.8980625,35.4814375,+96121750566,,,,,,2,osm,2026-05-02T16:02:09.618425Z
Malik's Hamra,stationery,Beirut,شارع الحمرا,33.8955835,35.4834251,+961 1 741 911,,,,,,2,osm,2026-05-02T16:02:09.618425Z
حلويات الأنوار,confectionery,South Lebanon,شارع الست نفيسة,33.5617573,35.3783528,+961 7 725 758,,,,,,2,osm,2026-05-02T16:02:09.618425Z
Crêpe Station,confectionery,Beirut,,33.8938441,35.5402278,+961 1 255 037,,,,,,1,osm,2026-05-02T16:02:09.618425Z
مطعم ذوات,restaurant,South Lebanon,,33.5657253,35.3722902,+961 7 723 724,,,,,https://www.instagram.com/zawat.restaurant,2,osm,2026-05-02T16:02:09.618425Z
Jadov Pets Center,pet,South Lebanon,طريق صيدا القديم,33.8055566,35.5015073,+9615441272,,,,,,2,osm,2026-05-02T16:02:09.618425Z
Terabyte Computers Msaytbeh,computer,Beirut,شارع بشير جنبلاط,33.8807435,35.4937647,+9611640501,,https://terabyte.computer/,False,,,3,osm,2026-05-02T16:02:09.618425Z
Château Qanafar Boutique,wine,Beirut,Amine Gemayel street,33.8838807,35.5266331,+961 1 398 782,contactus@chateauqanafar.com,https://www.chateauqanafar.com/,True,chateauqanafar,chateauqanafar,5,osm,2026-05-02T16:02:09.618425Z
Baba Bahaa,toys,Mount Lebanon,,33.7450515,35.4547631,+9615601535,,http://bababahaaonline.com,False,Bababahaashop,,3,osm,2026-05-02T16:02:09.618425Z
مؤسسة عماد كمال اللبان التجارية,hardware,Beirut,,33.860432,35.5097671,+961 1 556 489,,,,,,1,osm,2026-05-02T16:02:09.618425Z
Kado Ghamlouch,toys,Beirut,ميشال زكور,33.8569592,35.5229041,+961 1 547 447,,http://kadoghamloush.com,True,,,3,osm,2026-05-02T16:02:09.618425Z
Beit Toureef,hotel,Beirut,,33.8953507,35.5191991,+961 1 443 495,,https://beittoureef.com/,True,,,2,osm,2026-05-02T16:02:09.618425Z
سوبرماركت يوسف ناصر,supermarket,South Lebanon,,33.1661316,35.3910565,+9613976090,,,,,,1,osm,2026-05-02T16:02:09.618425Z
بلدية حداثا,townhall,South Lebanon,حداثا,33.1680416,35.3970129,+96170608895,,,,,,2,osm,2026-05-02T16:02:09.618425Z
Sea Slim,bakery,Beirut,شارع الياس البعقليني,33.885804,35.5203623,+96176336667,,,,,,2,osm,2026-05-02T16:02:09.618425Z
كافية أبو الوليد,cafe,Akkar,,34.5915375,36.1168348,+96170113470,,,,,,1,osm,2026-05-02T16:02:09.618425Z
16MM,bar,Beirut,Gouraud,33.8949542,35.51444,81 440 760,,,,,,2,osm,2026-05-02T16:02:09.618425Z
Zero&One,company,Beirut,"1499, شارع ناصيف اليازجي",33.8916236,35.5056636,+9611669694,innovate@zeroandone.me,https://zeroandone.me,True,,,4,osm,2026-05-02T16:02:09.618425Z
Aroos almasayif,convenience,Mount Lebanon,,33.807287,35.5975226,78862883,,,,,,1,osm,2026-05-02T16:02:09.618425Z
El Fouar Maronite School,school,North Lebanon,El Fouar,34.4353498,35.8858662,06685656,,,,,,2,osm,2026-05-02T16:02:09.618425Z
Abu Yahya,restaurant,Mount Lebanon,,33.7856917,35.4901534,+9613779503,,,,,,1,osm,2026-05-02T16:02:09.618425Z
Khayzaran56,restaurant,Mount Lebanon,طريق البحر,33.7891013,35.4785711,+9613552235,,,,,,2,osm,2026-05-02T16:02:09.618425Z
Al-Rouken Al-Shami,restaurant,Mount Lebanon,,33.7870246,35.4797689,+9615802955,,,,,,1,osm,2026-05-02T16:02:09.618425Z
Falafel Khalifeh,restaurant,Mount Lebanon,,33.7912056,35.4812004,+9615801595,,,,,,1,osm,2026-05-02T16:02:09.618425Z
مجموعة البيال,community_centre,Beirut,"أتستراد إميل لحود, Forn el Chebbak",33.8758774,35.5277369,+961 1 995 555,leb@biel-group.com,http://www.biel-group.com,True,https://www.facebook.com/BIELGroup,,5,osm,2026-05-02T16:02:09.618425Z
وزارة الداخلية والبدلديّات,government,Beirut,,33.8949801,35.4899528,+9611754200,,http://interior.gov.lb,False,,,2,osm,2026-05-02T16:02:09.618425Z
أ ب ث الأشرفية,mall,Beirut,,33.8889658,35.5196789,+961 1 212 888,,http://www.abc.com.lb/,True,,,2,osm,2026-05-02T16:02:09.618425Z
فندق سان جورج,hotel,Beirut,,33.9024311,35.4945685,+9611370741,,,,,,1,osm,2026-05-02T16:02:09.618425Z
Al Assi Hospital,hospital,Akkar,,34.3983304,36.4064865,+961 8 200 238,,,,https://www.facebook.com/alassihospital,,2,osm,2026-05-02T16:02:09.618425Z
سفارة كندا,diplomatic,Mount Lebanon,"43, Jal El Dib Highway",33.909372,35.5781219,+9614726700,,,,,,2,osm,2026-05-02T16:02:09.618425Z
Byblos Sur Mer,hotel,North Lebanon,,34.1226154,35.6427738,+9619548000,,,,,,1,osm,2026-05-02T16:02:09.618425Z
سيتي مول,mall,Mount Lebanon,أتستراد البحر,33.8981178,35.5639031,+961 1 905 555,,https://citymall.com.lb/,True,,,3,osm,2026-05-02T16:02:09.618425Z
Intercontinental Mzaar Hotel,hotel,Bekaa,,33.9924013,35.8365726,+961 9 340 100,,https://www.ihg.com/intercontinental/hotels/gb/en/mzaar/mzrha/hoteldetail,True,,,2,osm,2026-05-02T16:02:09.618425Z
Hôtel Le Gray,hotel,Beirut,,33.8972233,35.5066176,+9611971111,,,,,,1,osm,2026-05-02T16:02:09.618425Z
مدرسة الإخوة المريميين الشانفيل,college,Mount Lebanon,ديك المحدي,33.9353951,35.617007,+961 4 913 327,,https://www.champville.edu.lb/,True,,,3,osm,2026-05-02T16:02:09.618425Z
الرسول الأعظم,hospital,Mount Lebanon,,33.8431013,35.4987114,+9611458555;+9611456455;+9611456456,info@alrassoul.org,http://alrassoul.org/ar/,True,,,3,osm,2026-05-02T16:02:09.618425Z
أ ب سي الضبية‎‎,mall,Mount Lebanon,الضبية‎‎,33.9266286,35.5882046,+961 4 416 000,,http://www.abc.com.lb/,True,,,3,osm,2026-05-02T16:02:09.618425Z
لو مول,mall,Mount Lebanon,ضبية,33.9297064,35.5890885,+961 4 408 111,,https://www.lemall.com.lb/,True,,,3,osm,2026-05-02T16:02:09.618425Z
هوم سنتر,furniture,Beirut,سن الفيل,33.8686042,35.5357765,+961 5 956 448,,http://www.homecentrestores.com/,False,,,3,osm,2026-05-02T16:02:09.618425Z
Hilton Beirut Metropolitan Palace,hotel,Beirut,"Dimitri El Hayek, بيروت",33.8707953,35.5359606,+961 1 496 666,BeirutMetropolitanpalace.Information@hilton.com,https://www.hilton.com/en/hotels/beymphi-hilton-beirut-metropolitan-palace/,True,http://www.facebook.com/HiltonBeirutMetropolitanPalace,,5,osm,2026-05-02T16:02:09.618425Z
مستشفى يونيفيل,hospital,South Lebanon,الناقورة,33.1240808,35.1372511,+9611925000,,https://unifil.unmissions.org/,True,,,3,osm,2026-05-02T16:02:09.618425Z
سفارة فرنسا,diplomatic,Beirut,"طريق الشام, Beyrouth",33.8808153,35.5124367,+961 1 420 000,,https://lb.ambafrance.org/,True,,,3,osm,2026-05-02T16:02:09.618425Z
سوبرماركت فهد فرن الشباك,supermarket,Beirut,,33.8702078,35.5252042,+9611292003,,,,,,1,osm,2026-05-02T16:02:09.618425Z
Four Points by Sheraton Le Verdun,hotel,Beirut,"Verdun, Boulevard Saeb Salam, Beyrouth",33.8822079,35.4854477,+961 1 803 804,verdun.reservations@fourpointshotels.com,https://www.marriott.com/hotels/travel/beyfp-four-points-le-verdun/,True,,,4,osm,2026-05-02T16:02:09.618425Z
فندق فور سيزنس,hotel,Beirut,بيروت,33.9019029,35.4991876,+961 1 761 000,,https://www.fourseasons.com/beirut,True,,,3,osm,2026-05-02T16:02:09.618425Z
Pépinières La Sagesse,garden_centre,Mount Lebanon,,33.8915512,35.5696079,+961 1 887 161,,,,,,1,osm,2026-05-02T16:02:09.618425Z
مستشفى الروم,hospital,Beirut,"Achrafieh, Beyrouth",33.8939699,35.5238793,+961 1 441 000,,https://www.stgeorgehospital.org/,True,,,3,osm,2026-05-02T16:02:09.618425Z
الأكاديمية اللبنانية للفنون الجميلة,university,Beirut,"شارع 23, سن الفيل",33.8796167,35.5407206,+9611480056,,https://alba.edu.lb,True,,,3,osm,2026-05-02T16:02:09.618425Z
بلدية بيت مري,townhall,Mount Lebanon,Mar Sassine Area,33.857267,35.6009328,+961 4 870 702,,,,,,2,osm,2026-05-02T16:02:09.618425Z
بلدية بطشيه,townhall,Mount Lebanon,,33.8268903,35.5439083,+961 5 922 213,,,,,,1,osm,2026-05-02T16:02:09.618425Z
مستشفى السلام,hospital,North Lebanon,,34.4214788,35.8268755,+961 6 411 700,,,,,,1,osm,2026-05-02T16:02:09.618425Z
Antonite Sisters School,school,Mount Lebanon,,34.0147434,35.6625412,+961 9 920 114,,,,,,1,osm,2026-05-02T16:02:09.618425Z
بلدية بعبدا,townhall,Mount Lebanon,,33.8343853,35.5445663,+9615920573,,,,,,1,osm,2026-05-02T16:02:09.618425Z
Le Charcutier Aoun,supermarket,Mount Lebanon,,33.911537,35.5819324,+961 4 521 763,,,,,,1,osm,2026-05-02T16:02:09.618425Z
Hôpital Tal Chiha,hospital,Bekaa,,33.8408246,35.9058668,+9618823055,nicolas.khoury@telchiha.com,https://www.telchiha.com/,True,https://www.facebook.com/TelChiha/,,4,osm,2026-05-02T16:02:09.618425Z
بلدية صيدا,townhall,South Lebanon,صيدا,33.5641994,35.37538,+9617720060,,,,,,2,osm,2026-05-02T16:02:09.618425Z
بلدية الفنار,townhall,Mount Lebanon,,33.8794458,35.5778549,+9611875471,,,,,,1,osm,2026-05-02T16:02:09.618425Z
مستشفى سان لويس جونية,hospital,Mount Lebanon,,33.9930746,35.6407617,+9619933334,,http://www.stherese.com/hop3.aspx,True,https://www.facebook.com/pages/category/Hospital/Hôpital-Saint-Louis-Jounieh-160985097621069,,3,osm,2026-05-02T16:02:09.618425Z
Jounieh Municipality,townhall,Mount Lebanon,,33.9847719,35.6342508,+961 9 913 000,,http://www.jounieh.gov.lb/,True,https://www.facebook.com/jouniehmunicipality/,,3,osm,2026-05-02T16:02:09.618425Z
مستشفى اللبناني الكندي,hospital,Beirut,,33.8722039,35.5350876,+9611511488,info@hoplica.com,,,,,2,osm,2026-05-02T16:02:09.618425Z
Monastery Saint Maron,monastery,Bekaa,Aannaya,34.1209086,35.7533019,+961 9 760 130,info@saintcharbel-annaya.com,https://saintcharbel.com/,True,,,4,osm,2026-05-02T16:02:09.618425Z
Tannourine Governmental Hospital,hospital,North Lebanon,,34.2126385,35.8610537,+9616520555,,,,https://www.facebook.com/pages/category/Hospital/Tannourine-Governmental-Hospital-785020254968713,,2,osm,2026-05-02T16:02:09.618425Z
مستشفى سان جورج,hospital,Mount Lebanon,,33.8370343,35.5271262,+9615463922,,,,,,1,osm,2026-05-02T16:02:09.618425Z
جامعة سيدة اللويزة,university,Mount Lebanon,ذوق مصبح,33.9507794,35.6137093,+961 9 208 000,,,,,,2,osm,2026-05-02T16:02:09.618425Z
Byblos Wax Museum,museum,North Lebanon,,34.1215445,35.6459158,+961 9 540 463,,,,,,1,osm,2026-05-02T16:02:09.618425Z
STAL,company,Mount Lebanon,,33.8540337,35.5803269,+9614400400,info@stal-me.com,http://www.stal-me.com,True,,,3,osm,2026-05-02T16:02:09.618425Z
مستشفى جبل لبنان,hospital,Beirut,شارع ميشال غاريوس,33.8602146,35.5280824,+961 5 957 000,mlh@mlh.com.lb,http://www.mlh.com.lb/,True,https://www.facebook.com/mountlebanonhospital,,5,osm,2026-05-02T16:02:09.618425Z
Collège des Frères Mont La Salle,school,Mount Lebanon,"Route Principale Aïn Saadé, Aïn Saadé",33.8664377,35.5775903,+961 1 870 025,direction@montlasalle.edu.lb,http://www.montlasalle.edu.lb/,True,,,4,osm,2026-05-02T16:02:09.618425Z
مستشفى الحايك,hospital,Mount Lebanon,"575, Street 9-04, Sin El Fil",33.8705154,35.5379825,+961 1 481 333,info@hopitalhayek.com,http://hayekhospital.com,True,,,4,osm,2026-05-02T16:02:09.618425Z
وزارة التربية والتعليم العالي,government,Beirut,,33.8798673,35.4860617,+961 1 772 000,,https://www.mehe.gov.lb/ar,True,,,2,osm,2026-05-02T16:02:09.618425Z
بلدية المنصورية,townhall,Mount Lebanon,,33.857589,35.5689051,+9614400015,,,,,,1,osm,2026-05-02T16:02:09.618425Z
شاركوتيه عون,supermarket,Mount Lebanon,,33.8741423,35.57997,+961 1 891 609,,,,,,1,osm,2026-05-02T16:02:09.618425Z
Advanced Eye Care,clinic,Mount Lebanon,Antelias-Naccache old road,33.9223892,35.5887484,+961 4 444 541,drwarrak@eyecare-lb.com,http://www.eyecare-lb.com,True,,,4,osm,2026-05-02T16:02:09.618425Z
سفارة إيطاليا,diplomatic,Beirut,"طريق القصر الرئاسي, بعبدا",33.8453381,35.5387987,+9615954955,,https://ambbeirut.esteri.it,True,,,3,osm,2026-05-02T16:02:09.618425Z
مستشفى ضهر الباشق,hospital,Mount Lebanon,,33.8827146,35.5992607,+9614872144,,,,,,1,osm,2026-05-02T16:02:09.618425Z
السفارة الأميركية,diplomatic,Beirut,بيروت,33.9335714,35.6011531,+961 4 543 600,,https://lb.usembassy.gov/,True,https://www.facebook.com/USEmbassyBeirut/,usembassybeirut,4,osm,2026-05-02T16:02:09.618425Z
Portemilio Hotel,hotel,Mount Lebanon,,33.9811709,35.6133028,+961 9 933 300,,https://www.portemilio.com/,True,,,2,osm,2026-05-02T16:02:09.618425Z
The Rooms,hotel,Mount Lebanon,,33.9909793,35.6395718,+961 9 914 514,info@theroomslb.com,https://theroomslb.com,True,,,3,osm,2026-05-02T16:02:09.618425Z
Saint Georges Church,place_of_worship,Mount Lebanon,,33.9440307,35.592631,+9614545121,,,,,,1,osm,2026-05-02T16:02:09.618425Z
سفارة إندونيسيا,diplomatic,Beirut,,33.8452004,35.5418363,+961 5 924 682,,https://kemlu.go.id/beirut,True,,,2,osm,2026-05-02T16:02:09.618425Z
الفلمنكي,cafe,Beirut,"شارع شاتيلا, بيروت",33.8916453,35.4711518,+9611323456,,http://www.alfalamanki.com,True,,,3,osm,2026-05-02T16:02:09.618425Z
الرسول الأعظم للقلب,hospital,Mount Lebanon,,33.8437872,35.4989961,+9611456456,,,,https://www.facebook.com/alrasul.alazam,,2,osm,2026-05-02T16:02:09.618425Z
The Grand Meshmosh Hotel,hostel,Beirut,"درج مار نقولا, بيروت",33.8945089,35.5155331,+9611563465,thegrandmeshmosh@gmail.com,https://www.thegrandmeshmosh.com,True,grandmeshmosh,,5,osm,2026-05-02T16:02:09.618425Z
هيلتون بيروت وسط المدينة,hotel,Beirut,Rue Émir Majid Arslan,33.9012172,35.5029789,+961 1 951 111,beyhi_info@hilton.com,https://ar.hilton.com/ar_ar/hotels/hilton-beirut-downtown/,True,https://www.facebook.com/HiltonBeirutDowntown,https://www.instagram.com/hiltonbeirutdowntown,5,osm,2026-05-02T16:02:09.618425Z
