name,category,region,country,address,lat,lon,phone,email,website,website_live,facebook,instagram,whatsapp,linkedin,rating,review_count,completeness_score,lead_score,industry_priority,recommended_service,source,scraped_at
Fahed Supermarket - Jounieh,supermarket,Mount Lebanon,LB,"La Cite، Jounieh, Lebanon",33.984955299999996,35.6348312,+9619934433,,,,,,,,3.9,883,2,38,medium,"RTYLR commerce OS (POS, online ordering, CRM)",google_places|osm,2026-05-04T13:12:10.493892Z
Hopital des Soeurs du Rosaire,hospital,Beirut,LB,"VGW8+837, Beirut, Lebanon",33.8957958,35.5151822,+9611440800,info@hopitalrosaire.org,http://www.hopitalrosaire.org/,True,,hopitalrosaire.org,,,4.2,56,5,68,medium,Digital marketing retainer (Meta + Google + content),google_places|osm,2026-05-04T13:12:10.493892Z
مستشفى الإقليم المركزي,hospital,Mount Lebanon,LB,,33.6139536,35.4721675,+9617970777,,,,,,,,,,1,23,medium,Full digital launch (brand + website + social setup),osm,2026-05-04T13:12:10.490486Z
روسّا كافيه,cafe,Beirut,LB,,33.8952284,35.484735,+9611343339,,,,,,,,,,1,30,high,"RTYLR commerce OS (POS, online ordering, CRM)",osm,2026-05-04T13:12:10.490486Z
ستاربكس,cafe,Beirut,LB,,33.8956032,35.4830661,+9611744305,,https://www.starbucks.com/,True,,starbucks,,,,,3,50,high,SEO audit + visibility upgrade,osm,2026-05-04T13:12:10.490486Z
صيدلية قاروط,pharmacy,Beirut,LB,,33.875686,35.4974978,+9611306099,,,,,,,,,,1,23,medium,Full digital launch (brand + website + social setup),osm,2026-05-04T13:12:10.490486Z
حنيني,pharmacy,Beirut,LB,بيروت,33.8736312,35.5000326,+9611819110,,,,,,,,,,2,23,medium,Full digital launch (brand + website + social setup),osm,2026-05-04T13:12:10.490486Z
مطعم الشمس,restaurant,Bekaa,LB,"Anjar Main Road, Anjar",33.7293791,35.9272457,+9618620568,,,,,,,,,,2,30,high,"RTYLR commerce OS (POS, online ordering, CRM)",osm,2026-05-04T13:12:10.490486Z
عبدالرحمان الحلاب,bakery,North Lebanon,LB,Tripoli,34.4374808,35.8336931,+9616444445,,https://www.hallab.com.lb/,True,,arhallab1881,,https://linkedin.com/company/hallab1881,,,5,43,medium,SEO audit + visibility upgrade,osm,2026-05-04T13:12:10.490486Z
أوتيل ماربل تاور,hotel,Beirut,LB,شارع نعمة يافت,33.8966863,35.4802065,+9611354586,info@marbletowerhotel.com,http://www.marbletowerhotel.com,True,,,,,,,4,60,high,SEO audit + visibility upgrade,osm,2026-05-04T13:12:10.490486Z
Nini Hospital,hospital,North Lebanon,LB,"El Maarad, Tarablus, Lebanon",34.4355717,35.8305106,+9616431400,,http://hopitalnini.com/,True,,hopitalnini,,https://linkedin.com/company/6988820,3.3,118,5,58,medium,Reputation + SEO turnaround,google_places|osm,2026-05-04T13:12:10.493892Z
أفران شمسين,bakery,Mount Lebanon,LB,طريق البحر السريع,33.7765746,35.4716779,+9615800658,,http://www.chamsine.net,True,,,,,,,3,33,medium,SEO audit + visibility upgrade,osm,2026-05-04T13:12:10.490486Z
Aida Pharmacy,pharmacy,Mount Lebanon,LB,Debbiyeh,33.6828717,35.4748587,+9617985662,,,,,,,,,,2,23,medium,Full digital launch (brand + website + social setup),osm,2026-05-04T13:12:10.490486Z
صيدلية الوردية,pharmacy,Mount Lebanon,LB,,33.8005793,35.4861194,+9615806608,,,,,,,,,,1,23,medium,Full digital launch (brand + website + social setup),osm,2026-05-04T13:12:10.490486Z
باب الميناء,restaurant,North Lebanon,LB,,34.1218287,35.6439216,+9619540475,,,,,,,,,,1,30,high,"RTYLR commerce OS (POS, online ordering, CRM)",osm,2026-05-04T13:12:10.490486Z
Saydet Zgharta Hospital,hospital,North Lebanon,LB,زغرتا,34.3996522,35.8856898,+9616660575,,http://www.ehdenz.com,True,,,,,,,3,33,medium,SEO audit + visibility upgrade,osm,2026-05-04T13:12:10.490486Z
أوتيل بيفيو,hotel,Beirut,LB,,33.9015855,35.4910599,+9611373090,,,,,,,,,,1,30,high,"RTYLR commerce OS (POS, online ordering, CRM)",osm,2026-05-04T13:12:10.490486Z
Byblos Comfort Hotel,hotel,North Lebanon,LB,جبيل,34.123963,35.6481661,+9619942200,info@bybloscomforthotel.com,,,,,,,,,3,50,high,"RTYLR commerce OS (POS, online ordering, CRM)",osm,2026-05-04T13:12:10.490486Z
حاج سوبرستور,supermarket,North Lebanon,LB,,34.1205801,35.6509154,+9619546000,,,,,,,,,,1,23,medium,"RTYLR commerce OS (POS, online ordering, CRM)",osm,2026-05-04T13:12:10.490486Z
نزل مار ميخائيل,hostel,Mount Lebanon,LB,معاصر الشوف,33.6671352,35.6716396,+96153504519615350452,,,,,,,,,,2,30,high,Full digital launch (brand + website + social setup),osm,2026-05-04T13:12:10.490486Z
فندق الباروك بالاس,hotel,Mount Lebanon,LB,,33.7123376,35.6902985,+9615240251,,,,,,,,,,1,30,high,"RTYLR commerce OS (POS, online ordering, CRM)",osm,2026-05-04T13:12:10.490486Z
فندق إيريس فلور,hotel,South Lebanon,LB,Jezzine,33.5407869,35.5846962,+9617781999,,,,,,,,,,2,30,high,"RTYLR commerce OS (POS, online ordering, CRM)",osm,2026-05-04T13:12:10.490486Z
الرامي,restaurant,Mount Lebanon,LB,,33.8361609,35.7396675,+9615531694,,,,,,,,,,1,30,high,"RTYLR commerce OS (POS, online ordering, CRM)",osm,2026-05-04T13:12:10.490486Z
مطعم أبو نعيم,restaurant,Beirut,LB,"12, شارع عمر بن عبد العزيز, بيروت",33.8952358,35.4834994,+9611750480,,https://www.facebook.com/AbuNaimHamra,True,,media,,,,,4,50,high,SEO audit + visibility upgrade,osm,2026-05-04T13:12:10.490486Z
Sabis Adma,school,Mount Lebanon,LB,,34.0234982,35.6378846,+9619854154,,,,,,,,,,1,23,medium,Full digital launch (brand + website + social setup),osm,2026-05-04T13:12:10.490486Z
Tavolina,restaurant,Beirut,LB,,33.8971463,35.5243323,+9611442244,,,,,,,,,,1,30,high,"RTYLR commerce OS (POS, online ordering, CRM)",osm,2026-05-04T13:12:10.490486Z
ماكدونالدز,fast_food,Mount Lebanon,LB,,33.9105469,35.5829256,+9614521349,,,,,,,,,,1,30,high,"RTYLR commerce OS (POS, online ordering, CRM)",osm,2026-05-04T13:12:10.490486Z
ستاربكس,cafe,Mount Lebanon,LB,,33.9005689,35.572722,+9611757154,,https://locations.starbucks.com.lb/directory/mount-lebanon/zalka-road-zalka,True,,font,,,,,3,50,high,SEO audit + visibility upgrade,osm,2026-05-04T13:12:10.490486Z
Wooden Bakery,bakery,Mount Lebanon,LB,,33.8542707,35.569453,+9614532666,,,,,,,,,,1,23,medium,Full digital launch (brand + website + social setup),osm,2026-05-04T13:12:10.490486Z
سي اسويت,confectionery,Beirut,LB,Rue de Damas,33.8675065,35.5271053,+9611292444,,http://www.lebanon.com/seasweet/,True,,,,,,,3,33,medium,SEO audit + visibility upgrade,osm,2026-05-04T13:12:10.490486Z
Copas,restaurant,Mount Lebanon,LB,"برمانا, Broumana",33.8855576,35.6393939,+9614963999,,http://www.copas.asia/,False,,,,,,,3,50,high,Website rebuild + maintenance,osm,2026-05-04T13:12:10.490486Z
مستشفى لبنان للقلب,hospital,North Lebanon,LB,,34.4188689,35.8287278,+9616411750,,,,https://www.facebook.com/lebanonhearthospital,,,,,,2,23,medium,Website launch + capture their existing audience,osm,2026-05-04T13:12:10.490486Z
Osta,pharmacy,Mount Lebanon,LB,Wadi Shahrour,33.8178356,35.5579975,+9615943571,,,,,,,,,,2,23,medium,Full digital launch (brand + website + social setup),osm,2026-05-04T13:12:10.490486Z
مستشفى شتورا,hospital,Bekaa,LB,شتورا,33.8192371,35.8586781,+9618544022,,http://www.chtourahospital.com,True,,import,,https://linkedin.com/company/chtoura-hospital,,,5,43,medium,SEO audit + visibility upgrade,osm,2026-05-04T13:12:10.490486Z
مطعم الشلالات الزرقا,restaurant,Mount Lebanon,LB,,33.6525097,35.5337695,+9615301149,,,,,,,,,,1,30,high,"RTYLR commerce OS (POS, online ordering, CRM)",osm,2026-05-04T13:12:10.490486Z
مختبرات الحدث,clinic,Mount Lebanon,LB,,33.8394642,35.5303506,+9615464403,,,,,,,,,,1,30,high,Lead-gen website + Google Ads launch,osm,2026-05-04T13:12:10.490486Z
مطعم السلطان جبيل,restaurant,North Lebanon,LB,,34.1219923,35.6436274,+9619550777,,,,,,,,,,1,30,high,"RTYLR commerce OS (POS, online ordering, CRM)",osm,2026-05-04T13:12:10.490486Z
زهير,fast_food,Mount Lebanon,LB,,33.8404637,35.5327688,+9615470504,,,,,,,,,,1,30,high,"RTYLR commerce OS (POS, online ordering, CRM)",osm,2026-05-04T13:12:10.490486Z
my bakery,bakery,Mount Lebanon,LB,,33.8243316,35.5445568,+9615922367,,,,,,,,,,1,23,medium,Full digital launch (brand + website + social setup),osm,2026-05-04T13:12:10.490486Z
Hôpital Libano-Français,hospital,Bekaa,LB,,33.8334351,35.9124998,+9618810121,,,,,,,,,,1,23,medium,Full digital launch (brand + website + social setup),osm,2026-05-04T13:12:10.490486Z
صيدلية سان شارل,pharmacy,Mount Lebanon,LB,,33.845676,35.5466775,+9615952822,pharmacy.st-charles@outlook.com,,,,,,,,,2,43,medium,Full digital launch (brand + website + social setup),osm,2026-05-04T13:12:10.490486Z
أتويه,clothes,Mount Lebanon,LB,الحدث,33.8330102,35.5303192,+9615464096,,,,,,,,,,2,30,high,Full digital launch (brand + website + social setup),osm,2026-05-04T13:12:10.490486Z
EKT Katrangi,electronics,Beirut,LB,"شارع خليل مطران, Beyrouth",33.864812,35.4904856,+9611820020,,https://www.katranji.com,True,,katrangistore,+96181936272,,,,5,58,medium,SEO audit + visibility upgrade,osm,2026-05-04T13:12:10.490486Z
Clinilab,clinic,Beirut,LB,,33.8495472,35.5349449,+9615956011,,,,,,,,,,1,30,high,Lead-gen website + Google Ads launch,osm,2026-05-04T13:12:10.490486Z
hawilo hadath,fast_food,Mount Lebanon,LB,,33.8407311,35.5327473,+9615462456,,,,,,,,,,1,30,high,"RTYLR commerce OS (POS, online ordering, CRM)",osm,2026-05-04T13:12:10.490486Z
Papitto,laundry,Mount Lebanon,LB,,33.8055452,35.5414058,+9615430677,,,,,,,,,,1,23,medium,Full digital launch (brand + website + social setup),osm,2026-05-04T13:12:10.490486Z
Samar,pharmacy,Mount Lebanon,LB,,33.8428302,35.5299652,+9615469881,,,,,,,,,,1,23,medium,Full digital launch (brand + website + social setup),osm,2026-05-04T13:12:10.490486Z
Abi Nader,marketplace,Mount Lebanon,LB,,33.8254889,35.5455226,+9615922811,,,,,,,,,,1,23,medium,Full digital launch (brand + website + social setup),osm,2026-05-04T13:12:10.490486Z
Softkube s.a.r.l.,company,Beirut,LB,"Slaf Street, Beyrouth",33.878791,35.5427933,+9611494676,,https://softkube.com/,True,,,,https://linkedin.com/company/softkube-s.a.r.l.,,,4,25,low,SEO audit + visibility upgrade,osm,2026-05-04T13:12:10.490486Z
lalous argileh,tobacco,Mount Lebanon,LB,,33.8026259,35.5440176,+9615431368,,,,,,,,,,1,23,medium,Full digital launch (brand + website + social setup),osm,2026-05-04T13:12:10.490486Z
جفينور روتانا,hotel,Beirut,LB,,33.8980962,35.4879423,+9611371888,,,,,,,,,,1,30,high,"RTYLR commerce OS (POS, online ordering, CRM)",osm,2026-05-04T13:12:10.490486Z
Vista del Mar,hotel,Mount Lebanon,LB,,33.994658,35.6422228,+9619639799,,,,,,,,,,1,30,high,"RTYLR commerce OS (POS, online ordering, CRM)",osm,2026-05-04T13:12:10.490486Z
موج البحر,restaurant,Mount Lebanon,LB,,33.9945666,35.6406626,+9619914414,,,,,,,,,,1,30,high,"RTYLR commerce OS (POS, online ordering, CRM)",osm,2026-05-04T13:12:10.490486Z
Makhlouf,restaurant,Mount Lebanon,LB,,33.9885817,35.6374521,+9619645192,,,,,,,,,,1,30,high,"RTYLR commerce OS (POS, online ordering, CRM)",osm,2026-05-04T13:12:10.490486Z
El Mina,convenience,Mount Lebanon,LB,,33.9879854,35.6371376,+9619637382,,,,,,,,,,1,23,medium,"RTYLR commerce OS (POS, online ordering, CRM)",osm,2026-05-04T13:12:10.490486Z
Maison Swiss,bar,Mount Lebanon,LB,,33.987383,35.6371741,+9619930807,,,,,,,,,,1,30,high,"RTYLR commerce OS (POS, online ordering, CRM)",osm,2026-05-04T13:12:10.490486Z
Concept,car_rental,Mount Lebanon,LB,,33.9934074,35.6420657,+9619910091,,,,,,,,,,1,23,medium,Full digital launch (brand + website + social setup),osm,2026-05-04T13:12:10.490486Z
Al Murjan Palace Hotel,hotel,Mount Lebanon,LB,,33.9914977,35.6414817,+9619832199,,,,,,,,,,1,30,high,"RTYLR commerce OS (POS, online ordering, CRM)",osm,2026-05-04T13:12:10.490486Z
مانويلا,restaurant,Mount Lebanon,LB,,34.004112,35.6447601,+9619830000,,,,,,,,,,1,30,high,"RTYLR commerce OS (POS, online ordering, CRM)",osm,2026-05-04T13:12:10.490486Z
Sanita,company,Mount Lebanon,LB,,34.0830218,35.6500995,+9619477001,info@sanitalb.com,http://www.sanitalb.com,True,,sanitalb,,,,,4,55,low,SEO audit + visibility upgrade,osm,2026-05-04T13:12:10.490486Z
بربكيو,fast_food,Mount Lebanon,LB,,33.9818277,35.6286457,+9619936906,,,,,,,,,,1,30,high,"RTYLR commerce OS (POS, online ordering, CRM)",osm,2026-05-04T13:12:10.490486Z
Khodr Jewelry,jewelry,Beirut,LB,شارع أمين منيمنة,33.8929773,35.4853709,+9611343539,info@khodrjewelry.com,https://www.khodrjewelry.com/,False,,,,,,,4,70,high,Website rebuild + maintenance,osm,2026-05-04T13:12:10.490486Z
Regency Palace,hotel,Mount Lebanon,LB,,34.018442,35.6485142,+96198540009619854854,,,,,,,,,,1,30,high,"RTYLR commerce OS (POS, online ordering, CRM)",osm,2026-05-04T13:12:10.490486Z
Abdo Couture,clothes,Beirut,LB,,33.8732185,35.5221117,+9611280020,,,,,,,,,,1,30,high,Full digital launch (brand + website + social setup),osm,2026-05-04T13:12:10.490486Z
Chady Abi Aad,electronics,Mount Lebanon,LB,,33.8907552,35.5581884,+9611881231,,,,,,,,,,1,23,medium,Full digital launch (brand + website + social setup),osm,2026-05-04T13:12:10.490486Z
Centre de Design Farra,furniture,Mount Lebanon,LB,"155, طريق برمانا الرئيسية, Metn",33.8638968,35.5469009,+9611687000,info@farra.com,http://www.farra.com,True,,keyframes,,,,,5,63,medium,SEO audit + visibility upgrade,osm,2026-05-04T13:12:10.490486Z
Sushiway,restaurant,Mount Lebanon,LB,,34.0138415,35.6471309,+9619850825,,,,,,,,,,1,30,high,"RTYLR commerce OS (POS, online ordering, CRM)",osm,2026-05-04T13:12:10.490486Z
Napoleon Hotel,hotel,Beirut,LB,"Nehme Yafet, Bayrut, Lebanon",33.897331199999996,35.479969,+9611340013,,http://www.napoleonbeirut.com/,True,,,,,3.4,554,3,55,high,Reputation + SEO turnaround,google_places|osm,2026-05-04T13:12:10.493892Z
رصيف بيروت,restaurant,Beirut,LB,"شارع عمر بن عبد العزيز, Beyrouth",33.8974423,35.4844673,+9611736727,,,,,,,,,,2,30,high,"RTYLR commerce OS (POS, online ordering, CRM)",osm,2026-05-04T13:12:10.490486Z
A New Earth Organic Store,supermarket,Beirut,LB,شارع زهرة الإحسان,33.8897362,35.5174801,+9611219920,,https://www.anewearth.net/,True,,media,,,,,4,43,medium,SEO audit + visibility upgrade,osm,2026-05-04T13:12:10.490486Z
ملك الطاووق أبراج,fast_food,Beirut,LB,,33.8680207,35.5263357,+9611281678,,,,,,,,,,1,30,high,"RTYLR commerce OS (POS, online ordering, CRM)",osm,2026-05-04T13:12:10.490486Z
MidTown Hotel & Suites,hotel,South Lebanon,LB,"483, شارع صوراتي, Beyrouth",33.8971008,35.4834235,+9611347555,,,,https://www.facebook.com/MidtownHotelSuites,,,,,,3,30,high,Website launch + capture their existing audience,osm,2026-05-04T13:12:10.490486Z
صب معادن أرتين,convenience,Mount Lebanon,LB,,33.8853167,35.551827,+9611488500,,,,,,,,,,1,23,medium,"RTYLR commerce OS (POS, online ordering, CRM)",osm,2026-05-04T13:12:10.490486Z
برد هوس,bakery,North Lebanon,LB,كفر عبيدا,34.2292929,35.6600723,+9616643000,,,,,,,,,,2,23,medium,Full digital launch (brand + website + social setup),osm,2026-05-04T13:12:10.490486Z
تي إس سي بلوس,supermarket,Mount Lebanon,LB,"Al Sayyad Round About, Baabda",33.8543472,35.5347045,+9615955200,,https://www.sultan-center.com/Default.aspx?pageId=525,True,,original,,,,,4,43,medium,SEO audit + visibility upgrade,osm,2026-05-04T13:12:10.490486Z
ملحمة الحدشيتي,butcher,Mount Lebanon,LB,,33.8279785,35.5278706,+9615469153,,,,,,,,,,1,23,medium,Full digital launch (brand + website + social setup),osm,2026-05-04T13:12:10.490486Z
ماكدونالدز,fast_food,Mount Lebanon,LB,,33.8543587,35.5701848,+9614534072,,,,,,,,,,1,30,high,"RTYLR commerce OS (POS, online ordering, CRM)",osm,2026-05-04T13:12:10.490486Z
اسناك الجزيرة,bakery,Beirut,LB,"شارع دونان, بيروت",33.8931656,35.4875864,+9611755557,,,,,,,,,,2,23,medium,Full digital launch (brand + website + social setup),osm,2026-05-04T13:12:10.490486Z
Focal Point,garden_centre,Mount Lebanon,LB,,33.8699812,35.6067235,+9614870995,,,,,,,,,,1,23,medium,Full digital launch (brand + website + social setup),osm,2026-05-04T13:12:10.490486Z
Grand Hills,hotel,Mount Lebanon,LB,"Charkieh Main Road, Broumana",33.8770925,35.6241206,+9614868888,reservations.grandhills@luxurycollection.com,https://www.marriott.com/hotels/travel/beylc-grand-hills-a-luxury-collection-hotel-and-spa-broumana/,True,,,,,,,4,60,high,SEO audit + visibility upgrade,osm,2026-05-04T13:12:10.490486Z
لايت آرت,photo,Beirut,LB,,33.8469923,35.5262023,+9615463850,,,,,,,,,,1,23,medium,Full digital launch (brand + website + social setup),osm,2026-05-04T13:12:10.490486Z
بطل للانارة,furniture,Beirut,LB,,33.8802872,35.4928284,+9611706706,,,,,,,,,,1,23,medium,Full digital launch (brand + website + social setup),osm,2026-05-04T13:12:10.490486Z
كاليري بيضون,furniture,Beirut,LB,,33.8744788,35.5072986,+9611633616,,,,,,,,,,1,23,medium,Full digital launch (brand + website + social setup),osm,2026-05-04T13:12:10.490486Z
Deek Duke,restaurant,Mount Lebanon,LB,,33.9296466,35.5886416,+9614524790,,,,,,,,,,1,30,high,"RTYLR commerce OS (POS, online ordering, CRM)",osm,2026-05-04T13:12:10.490486Z
مركز السيدة,hospital,Mount Lebanon,LB,,33.9100619,35.5874143,+9614713100961471310196147131029614713103,,,,,,,,,,1,23,medium,Full digital launch (brand + website + social setup),osm,2026-05-04T13:12:10.490486Z
The Peninsula,restaurant,Mount Lebanon,LB,,33.9470802,35.5937397,+9614540240,info@thepeninsula.com.lb,https://www.thepeninsula.com.lb/,True,https://m.facebook.com/thepeninsularestaurantandgardens/,thepeninsularestaurant,,,,,4,70,high,SEO audit + visibility upgrade,osm,2026-05-04T13:12:10.490486Z
Murray,restaurant,Mount Lebanon,LB,,33.9184787,35.5873168,+9614444213,,,,,,,,,,1,30,high,"RTYLR commerce OS (POS, online ordering, CRM)",osm,2026-05-04T13:12:10.490486Z
Résidence de France,hotel,Mount Lebanon,LB,27,33.9491476,35.593779,+9614540797,,,,,,,,,,2,30,high,"RTYLR commerce OS (POS, online ordering, CRM)",osm,2026-05-04T13:12:10.490486Z
964 Resto Cafe,restaurant,Mount Lebanon,LB,,33.9187557,35.5879347,+9614444810,,,,,,,,,,1,30,high,"RTYLR commerce OS (POS, online ordering, CRM)",osm,2026-05-04T13:12:10.490486Z
McDonald's,fast_food,North Lebanon,LB,,34.1360407,35.6453389,+9619622056,,,,,,,,,,1,30,high,"RTYLR commerce OS (POS, online ordering, CRM)",osm,2026-05-04T13:12:10.490486Z
مسعد,fast_food,Beirut,LB,,33.8595141,35.5371068,+9615450048,,,,,,,,,,1,30,high,"RTYLR commerce OS (POS, online ordering, CRM)",osm,2026-05-04T13:12:10.490486Z
Pit Stop Cafe,cafe,Mount Lebanon,LB,,33.9563159,35.6114276,+9619219999,,,,,,,,,,1,30,high,"RTYLR commerce OS (POS, online ordering, CRM)",osm,2026-05-04T13:12:10.490486Z
Pharmacie Bakhos,pharmacy,Mount Lebanon,LB,,34.0139943,35.6469872,+9619853254,,,,,,,,,,1,23,medium,Full digital launch (brand + website + social setup),osm,2026-05-04T13:12:10.490486Z
zaatar w zeit,restaurant,Mount Lebanon,LB,,33.9297523,35.5894042,+9614521978,,,,,,,,,,1,30,high,"RTYLR commerce OS (POS, online ordering, CRM)",osm,2026-05-04T13:12:10.490486Z
بابل,restaurant,Mount Lebanon,LB,,33.9414709,35.5920544,+9614546546,,https://www.babelrestaurant.com/,True,,,,,,,2,40,high,SEO audit + visibility upgrade,osm,2026-05-04T13:12:10.490486Z
جوجو لامب,electronics,Beirut,LB,,33.8495292,35.5046862,+9611559899,,,,,,,,,,1,23,medium,Full digital launch (brand + website + social setup),osm,2026-05-04T13:12:10.490486Z
Swiss Butter,restaurant,Bekaa,LB,Zahlé,33.8547032,35.8945703,+9618818518,,,,,,,,,,2,30,high,"RTYLR commerce OS (POS, online ordering, CRM)",osm,2026-05-04T13:12:10.490486Z
Platea,hotel,Mount Lebanon,LB,,33.9976363,35.6490573,+9619831666,,,,,,,,,,1,30,high,"RTYLR commerce OS (POS, online ordering, CRM)",osm,2026-05-04T13:12:10.490486Z
فرن العذرا,fast_food,Mount Lebanon,LB,,34.0632699,35.7090892,+9619860885,,,,,,,,,,1,30,high,"RTYLR commerce OS (POS, online ordering, CRM)",osm,2026-05-04T13:12:10.490486Z
برادي حمود,curtain,Beirut,LB,,33.858105,35.5102161,+96112733159611273385,,,,,,,,,,1,23,medium,Full digital launch (brand + website + social setup),osm,2026-05-04T13:12:10.490486Z
Securol,curtain,Mount Lebanon,LB,,33.7794537,35.4744263,+9615801461,,,,,,,,,,1,23,medium,Full digital launch (brand + website + social setup),osm,2026-05-04T13:12:10.490486Z
صالح ديكو,furniture,Beirut,LB,"شارع ألفريد نقاش, بيروت",33.8824458,35.5209111,+9611398449,info@salehdeo.com,https://salehdeco.com/,True,SalehDecosal,font,+9613133364,,,,6,78,medium,SEO audit + visibility upgrade,osm,2026-05-04T13:12:10.490486Z
مستشفى سيدة المعونات جبيل,hospital,North Lebanon,LB,,34.1281622,35.6588606,+9619940400,info@chu-nds.org,http://chu-nds.org/,True,,chunds.official,,https://linkedin.com/company/chunds,,,5,63,medium,SEO audit + visibility upgrade,osm,2026-05-04T13:12:10.490486Z
Université Libano-Française,university,North Lebanon,LB,"Boulevard Béchara el Khoury, Tripoli",34.4286331,35.8322329,+96164256089616425609,info@ulf.edu.lb,http://ulf.edu.lb/,False,,,,,,,4,63,medium,Website rebuild + maintenance,osm,2026-05-04T13:12:10.490486Z
Storiom - Supercenter,department_store,Mount Lebanon,LB,Main، Lebanon,33.9206177,35.6305845,+9614922934,info@storiomsaliba.com,http://www.storiom.com.lb/,True,,keyframes,+96176367368,,4.4,1431,6,83,medium,Digital marketing retainer (Meta + Google + content),google_places|osm,2026-05-04T13:12:10.493892Z
مستشفى مظلوم,hospital,North Lebanon,LB,"شارع أشرف كبارة, طرابلس",34.431834,35.8327696,+9616410025,info@newmazloum.com,http://newmazloum.com,True,https://www.facebook.com/newmazloumhospital,,,,,,5,53,medium,SEO audit + visibility upgrade,osm,2026-05-04T13:12:10.490486Z
صيدلية شعلان,pharmacy,Akkar,LB,طريق وادي خالد,34.6386194,36.3634359,+9616870110,,,,,,,,,,2,23,medium,Full digital launch (brand + website + social setup),osm,2026-05-04T13:12:10.490486Z
شادي نجار,electronics,Beirut,LB,,33.8768815,35.5059099,+9611630620,,,,,,,,,,1,23,medium,Full digital launch (brand + website + social setup),osm,2026-05-04T13:12:10.490486Z
Boulangerie Kolkas,bakery,Beirut,LB,,33.8592872,35.5089707,+9611555132,,,,,,,,,,1,23,medium,Full digital launch (brand + website + social setup),osm,2026-05-04T13:12:10.490486Z
Saniour,restaurant,Mount Lebanon,LB,,33.9987977,35.6480661,+9619933944,,,,,,,,,,1,30,high,"RTYLR commerce OS (POS, online ordering, CRM)",osm,2026-05-04T13:12:10.490486Z
اوركا,shoes,Beirut,LB,,33.8476184,35.5248293,+96154673009615467302,,,,,,,,,,1,30,high,Full digital launch (brand + website + social setup),osm,2026-05-04T13:12:10.490486Z
Allied Computer Services ALCS,computer,Mount Lebanon,LB,,33.900963,35.6045228,+96147270109614717002,,,,,,,,,,1,30,high,Full digital launch (brand + website + social setup),osm,2026-05-04T13:12:10.490486Z
Saba Supermarket,supermarket,Mount Lebanon,LB,طريق انطلياس بكفيا,33.9206561,35.6878047,+9614980077,,,,,,,,,,2,23,medium,"RTYLR commerce OS (POS, online ordering, CRM)",osm,2026-05-04T13:12:10.490486Z
AKL Stores,clothes,Beirut,LB,,33.85939,35.5360561,+9615454381,,,,,,,,,,1,30,high,Full digital launch (brand + website + social setup),osm,2026-05-04T13:12:10.490486Z
دي آش إل,post_office,Beirut,LB,"شارع الأمير بشير, بيروت",33.8946945,35.5057092,+9611629700,,http://dhl.com.lb,False,,,,,,,3,43,medium,Website rebuild + maintenance,osm,2026-05-04T13:12:10.490486Z
SSCC Bikfaya,school,Mount Lebanon,LB,,33.9210126,35.6820619,+9614980510,,http://www.bikfaya.sscc.edu.lb/,True,,link,,,,,3,43,medium,SEO audit + visibility upgrade,osm,2026-05-04T13:12:10.490486Z
Wooden Bakery,bakery,Mount Lebanon,LB,,34.0222814,35.6468058,+9619855935,,,,,,,,,,1,23,medium,Full digital launch (brand + website + social setup),osm,2026-05-04T13:12:10.490486Z
Saab,restaurant,Mount Lebanon,LB,,33.918608,35.6774327,+9614986269,,,,,,,,,,1,30,high,"RTYLR commerce OS (POS, online ordering, CRM)",osm,2026-05-04T13:12:10.490486Z
Atyãb Harissa Restaurant,cafe,Mount Lebanon,LB,,33.9815459,35.6520239,+9619263030,,,,,,,,,,1,30,high,"RTYLR commerce OS (POS, online ordering, CRM)",osm,2026-05-04T13:12:10.490486Z
Hilton Beirut Habtoor Grand,hotel,Beirut,LB,"Charles De Gaulle Street, Beyrouth",33.869416,35.5372243,+9611500666,BeirutHabtoorGrand.Information@hilton.com,https://www.hilton.com/en/hotels/beyhghi-hilton-beirut-habtoor-grand,True,http://www.facebook.com/HiltonBeirutHabtoorGrand,https://instagram.com/hiltonbeirut,,,,,5,70,high,SEO audit + visibility upgrade,osm,2026-05-04T13:12:10.490486Z
Gourma,restaurant,Mount Lebanon,LB,أتستراد البحر,34.0177117,35.6316217,+9619856609,thegourma@gmail.com,,,,,,,,,3,50,high,"RTYLR commerce OS (POS, online ordering, CRM)",osm,2026-05-04T13:12:10.490486Z
شاورما الزهراء,fast_food,Beirut,LB,أوتستراد هادي نصرالله,33.8601414,35.5116712,+9611277860,,,,,,,,,,2,30,high,"RTYLR commerce OS (POS, online ordering, CRM)",osm,2026-05-04T13:12:10.490486Z
Sfeir Industries-Stainless Steel,furniture,Mount Lebanon,LB,,33.8925828,35.5590614,+9611884666,,,,,,,,,,1,23,medium,Full digital launch (brand + website + social setup),osm,2026-05-04T13:12:10.490486Z
مجموعة البضن,clothes,North Lebanon,LB,طريق البحر,34.4478986,35.825643,+9616600558,info@bodongroup.com,http://www.bodongroup.com,False,,,,,,,4,70,high,Website rebuild + maintenance,osm,2026-05-04T13:12:10.490486Z
مختبرات الدكتور نعمه,clinic,Mount Lebanon,LB,,33.8925258,35.5586191,+9611253117,lab_naame@idm.net.lb,,,,,,,,,2,50,high,Lead-gen website + Google Ads launch,osm,2026-05-04T13:12:10.490486Z
جبنة وليام,fast_food,Mount Lebanon,LB,ريفون,33.9764074,35.7114992,+9619957990,,,,,,,,,,2,30,high,"RTYLR commerce OS (POS, online ordering, CRM)",osm,2026-05-04T13:12:10.490486Z
Media Square,photo,Mount Lebanon,LB,جل الديب,33.906883,35.5857298,+9614719919,info@mediasquare.tv,https://www.mediasquare.tv/,True,,context,+96171997766,,,,6,78,medium,SEO audit + visibility upgrade,osm,2026-05-04T13:12:10.490486Z
مطعم برج,restaurant,Beirut,LB,,33.848684,35.4926971,+9611453777,info@bridgerest.net,http://www.bridgerest.net,False,,,,,,,3,70,high,Website rebuild + maintenance,osm,2026-05-04T13:12:10.490486Z
Strand Réstocafé,restaurant,Bekaa,LB,,33.9097189,35.7569093,+9614295681,,,,,,,,,,1,30,high,"RTYLR commerce OS (POS, online ordering, CRM)",osm,2026-05-04T13:12:10.490486Z
روت فورتي وان,restaurant,Mount Lebanon,LB,"41, Kferchima Main",33.8165845,35.5324613,+9615433783,,,,,,,,,,2,30,high,"RTYLR commerce OS (POS, online ordering, CRM)",osm,2026-05-04T13:12:10.490486Z
ناتكو (كيا),car_repair,Beirut,LB,بيروت,33.8889766,35.5322841,+9611574999,,,,,,,,,,2,23,medium,Full digital launch (brand + website + social setup),osm,2026-05-04T13:12:10.490486Z
عيادة الدكتور بري الاسعد,doctors,Akkar,LB,,34.6215041,36.3894353,+9616870044,,,,,,,,,,1,30,high,Lead-gen website + Google Ads launch,osm,2026-05-04T13:12:10.490486Z
عبده ألمانيا,car_rental,Mount Lebanon,LB,"شارع الأخوين رحباني, أنطلياس",33.9175329,35.5872473,+9614411310,,,,,,,,,,2,23,medium,Full digital launch (brand + website + social setup),osm,2026-05-04T13:12:10.490486Z
مسعد,fast_food,North Lebanon,LB,,34.1247169,35.6489922,+9619856030,,,,,,,,,,1,30,high,"RTYLR commerce OS (POS, online ordering, CRM)",osm,2026-05-04T13:12:10.490486Z
فاركم,mobile_phone,Mount Lebanon,LB,شارع 19,33.8879216,35.5591609,+9611888232,farcom.lb@gmail.com,,,,,,,,,3,43,medium,Full digital launch (brand + website + social setup),osm,2026-05-04T13:12:10.490486Z
M.K Trading,pharmacy,Mount Lebanon,LB,أتستراد البحر,33.897316,35.5584158,+9611876037,michoco50@hotmail.com,http://www.chocoreyo.com,False,,,,,,,4,63,medium,Website rebuild + maintenance,osm,2026-05-04T13:12:10.490486Z
الإغاثة الأولية الدولية,community_centre,South Lebanon,LB,طريق البحر,33.5674467,35.3816813,+9617733253,lib.hob.sai@pu-ami.org,http://www.premier-urgence.org,False,,,,,,,4,55,low,Website rebuild + maintenance,osm,2026-05-04T13:12:10.490486Z
Zen Spa,cosmetics,Bekaa,LB,Ksara round point,33.8223529,35.8892255,+9618507906,info@zenspalebanon.com,http://www.zenspalebanon.com,False,,,,,,,4,70,high,Website rebuild + maintenance,osm,2026-05-04T13:12:10.490486Z
Chezena,beauty,Bekaa,LB,ksara round point,33.8229535,35.8901946,+9618507860,info@chezena.com,http://www.chezena.com,True,,,,,,,4,60,high,SEO audit + visibility upgrade,osm,2026-05-04T13:12:10.490486Z
مستشفى سرحال,hospital,Mount Lebanon,LB,,33.9149893,35.6085047,+9614405050,h.serhal@sodetel.net.lb,http://www.hopitaldrsserhal.com/,True,https://m.facebook.com/profile.php?id=551897948172594,import,,,,,4,63,medium,SEO audit + visibility upgrade,osm,2026-05-04T13:12:10.490486Z
Dani Cell,mobile_phone,Mount Lebanon,LB,,33.7928606,35.4925874,+9615804319,,,,,,,,,,1,23,medium,Full digital launch (brand + website + social setup),osm,2026-05-04T13:12:10.490486Z
عيادة سبليني,clinic,Beirut,LB,Boulevard Saëb Salam,33.8777804,35.5032947,+9611660940,drsiblini@gmail.com,,,,,,,,,3,50,high,Lead-gen website + Google Ads launch,osm,2026-05-04T13:12:10.490486Z
صيدليّة ألما,pharmacy,Beirut,LB,,33.89239,35.499787,+9611377041,,,,,,,,,,1,23,medium,Full digital launch (brand + website + social setup),osm,2026-05-04T13:12:10.490486Z
صيدلية شهاب,pharmacy,Beirut,LB,,33.8893223,35.5024125,+9611663600,,,,,,,,,,1,23,medium,Full digital launch (brand + website + social setup),osm,2026-05-04T13:12:10.490486Z
صيدلية سوبركير,pharmacy,Beirut,LB,,33.8688261,35.5169748,+9611382388,,,,,,,,,,1,23,medium,Full digital launch (brand + website + social setup),osm,2026-05-04T13:12:10.490486Z
د. تحسين الثمين,dentist,North Lebanon,LB,Fouad Chihab,34.4402481,35.8386382,+9616625631,,,,,,,,,,2,30,high,Lead-gen website + Google Ads launch,osm,2026-05-04T13:12:10.490486Z
مستشفی البيسار,hospital,North Lebanon,LB,,34.4394104,35.8402355,+9616432267961430365,,,,,,,,,,1,23,medium,Full digital launch (brand + website + social setup),osm,2026-05-04T13:12:10.490486Z
شركة دريلرز,hardware,North Lebanon,LB,الثقافة,34.4404609,35.8384828,+9616425054,,http://www.drillerz.com,True,,spaceship,,,,,4,43,medium,SEO audit + visibility upgrade,osm,2026-05-04T13:12:10.490486Z
Tallet Nasr,restaurant,Mount Lebanon,LB,,33.9083844,35.676303,+9614983549,,,,,,,,,,1,30,high,"RTYLR commerce OS (POS, online ordering, CRM)",osm,2026-05-04T13:12:10.490486Z
المستشفى اللبناني الإيطالي,hospital,South Lebanon,LB,,33.2536563,35.2246045,+9617344423,,,,,,,,,,1,23,medium,Full digital launch (brand + website + social setup),osm,2026-05-04T13:12:10.490486Z
Moulin d'Or,fast_food,North Lebanon,LB,جبيل,34.123729,35.6572523,+9619543999,,,,,,,,,,2,30,high,"RTYLR commerce OS (POS, online ordering, CRM)",osm,2026-05-04T13:12:10.490486Z
مطعم كرم,restaurant,Akkar,LB,"طريق كفرنون القطلبة, القبيات",34.5676287,36.2809484,+9616350227,info@karams.org,http://www.karams.org,True,,,,,,,4,60,high,SEO audit + visibility upgrade,osm,2026-05-04T13:12:10.490486Z
Library samaha,books,Mount Lebanon,LB,ghadir jounie,33.977884,35.631721,+9619900353,,,,,,,,,,2,23,medium,Full digital launch (brand + website + social setup),osm,2026-05-04T13:12:10.490486Z
مصبغة بلازا,laundry,Beirut,LB,شارع بني معروف,33.8902191,35.4869465,+9611740260,,,,,,,,,,2,23,medium,Full digital launch (brand + website + social setup),osm,2026-05-04T13:12:10.490486Z
KBC Workwear,tailor,Mount Lebanon,LB,,33.9657284,35.6169879,+9619219811,info@kbcworkwear.com,http://www.kbcworkwear.com,True,,,,,,,3,53,medium,SEO audit + visibility upgrade,osm,2026-05-04T13:12:10.490486Z
Maison de la Sécurité,computer,Mount Lebanon,LB,"1068, Route Principale de Broumana;, Mansouriyé",33.8585894,35.5640627,+9614534861,mdls@dm.net.lb,,,,,,,,,3,50,high,Full digital launch (brand + website + social setup),osm,2026-05-04T13:12:10.490486Z
سنتر فنزويلا,clothes,Mount Lebanon,LB,Rue Fouad Chehab,33.982559,35.6302251,+9619635019,domestica.jose@yahoo.com,,,,,,,,,3,50,high,Full digital launch (brand + website + social setup),osm,2026-05-04T13:12:10.490486Z
Dr Fadi Geara,doctors,Mount Lebanon,LB,Rue 5,33.9494942,35.6511304,+9619237651,fadi.geara@usj.edu.lb,,,,,,,,,3,50,high,Lead-gen website + Google Ads launch,osm,2026-05-04T13:12:10.490486Z
فندق كميلوت,hotel,Mount Lebanon,LB,,34.007014,35.6487752,+9619855222,,,,,,,,,,1,30,high,"RTYLR commerce OS (POS, online ordering, CRM)",osm,2026-05-04T13:12:10.490486Z
مركز فرح العطاء كفيفان,community_centre,North Lebanon,LB,Kafifane Road,34.2316832,35.7175332,+9616721114,kfifane@offrejoie.org,https://www.offrejoie.org/,False,,,,,,,4,55,low,Website rebuild + maintenance,osm,2026-05-04T13:12:10.490486Z
سوبرماركت خوري,supermarket,North Lebanon,LB,Route Jrâne,34.2202044,35.7150534,+9616720888,,,,,,,,,,2,23,medium,"RTYLR commerce OS (POS, online ordering, CRM)",osm,2026-05-04T13:12:10.490486Z
White City,convenience,Mount Lebanon,LB,Abi El-Lameh Street,33.890727,35.567844,+9611886880,,http://whitecity.com,False,,,,,,,3,43,medium,Website rebuild + maintenance,osm,2026-05-04T13:12:10.490486Z
منزل أبي راشد,guest_house,North Lebanon,LB,Dahr El-Arbeh,34.2340397,35.7157337,+9616720323,mhabeeabirached@gmail.com,https://www.couchsurfing.com/people/mhabe-camil-abirached,True,,couchsurfing,,,,,5,70,high,SEO audit + visibility upgrade,osm,2026-05-04T13:12:10.490486Z
صالون وسام بو غصن للسيدات,hairdresser,Mount Lebanon,LB,Bsalim exit,33.9003137,35.5982382,+9614723760,wissamboughosn@hotmail.com,,,,,,,,,3,43,medium,Full digital launch (brand + website + social setup),osm,2026-05-04T13:12:10.490486Z
سانت ميشال بيت شباب,pharmacy,Mount Lebanon,LB,,33.9253918,35.6777882,+9614983703,,,,,,,,,,1,23,medium,Full digital launch (brand + website + social setup),osm,2026-05-04T13:12:10.490486Z
اوبتيك الرشيد,optician,North Lebanon,LB,شارع عزمي بك,34.4385498,35.8378217,+9616628354,,,,,,,,,,2,30,high,Lead-gen website + Google Ads launch,osm,2026-05-04T13:12:10.490486Z
Saradar Bank,bank,Beirut,LB,جادة شارل مالك,33.892783,35.5089121,+9611339000,,,,,,,,,,2,23,medium,Full digital launch (brand + website + social setup),osm,2026-05-04T13:12:10.490486Z
أندريه مارشا,jewelry,Beirut,LB,"55, Selim Abdel Adi",33.8905356,35.5141194,+9611337077,,https://www.andremarcha.com,True,,nas_code,,https://linkedin.com/company/andremarcha,,,5,50,high,SEO audit + visibility upgrade,osm,2026-05-04T13:12:10.490486Z
ماء الذهب للعطور,beauty,Beirut,LB,شارع عمر بن عبد العزيز,33.8979292,35.4841202,+9611750815,hamra.maaalthahab@gmail.com,,,,,,,,,3,50,high,Full digital launch (brand + website + social setup),osm,2026-05-04T13:12:10.490486Z
Bchamoun Hospital,hospital,Mount Lebanon,LB,,33.7828674,35.5231476,+9615270970,,,,https://www.facebook.com/bshamounspecialtyhospital,https://www.instagram.com/explore/locations/1024176296/lebanon/beirut-lebanon/bchamoun-speciality-hospital,,,,,2,33,medium,Website launch + capture their existing audience,osm,2026-05-04T13:12:10.490486Z
صيدلية الحكمة,pharmacy,Beirut,LB,,33.8899814,35.4996836,+9611845877,,,,,,,,,,1,23,medium,Full digital launch (brand + website + social setup),osm,2026-05-04T13:12:10.490486Z
سي سويت,convenience,Beirut,LB,"1 طريق, سن الفيل",33.8733363,35.5414282,+9611512225,info@seasweet.com,https://www.seasweet.com/,True,,seasweet.com,,,,,5,63,medium,SEO audit + visibility upgrade,osm,2026-05-04T13:12:10.490486Z
إميليو,confectionery,Mount Lebanon,LB,شارع 72,33.8423508,35.5326813,+9615460158,,http://www.emilioshop.com,False,,,,,,,3,43,medium,Website rebuild + maintenance,osm,2026-05-04T13:12:10.490486Z
فندق وايت,hotel,Mount Lebanon,LB,,34.0394999,35.6844277,+9619740910,,,,,,,,,,1,30,high,"RTYLR commerce OS (POS, online ordering, CRM)",osm,2026-05-04T13:12:10.490486Z
صيدلية إلسي,pharmacy,Mount Lebanon,LB,,34.0344958,35.6694419,+9619741300,,,,,,,,,,1,23,medium,Full digital launch (brand + website + social setup),osm,2026-05-04T13:12:10.490486Z
Primutech s.a.r.l.,electronics,Mount Lebanon,LB,Akram Radwan str.,33.7914152,35.485847,+9615811013,,http://wwe.primutech.com,False,,,,,,,3,43,medium,Website rebuild + maintenance,osm,2026-05-04T13:12:10.490486Z
غريس,motel,Mount Lebanon,LB,طريق برمانا الرئيسية,33.885046,35.6382056,+9614960715,,,,,,,,,,2,30,high,Full digital launch (brand + website + social setup),osm,2026-05-04T13:12:10.490486Z
فتدق ديو روي,hotel,Beirut,LB,,33.8915246,35.5105761,+9611798801,,http://www.duroyhotel.com,True,,,,,,,2,40,high,SEO audit + visibility upgrade,osm,2026-05-04T13:12:10.490486Z
Malena,restaurant,North Lebanon,LB,,34.1213409,35.6442473,+9619544111,,,,,,,,,,1,30,high,"RTYLR commerce OS (POS, online ordering, CRM)",osm,2026-05-04T13:12:10.490486Z
Bay Rock,restaurant,Beirut,LB,شارع فرسان الهيكل,33.8906881,35.4716054,+9611796700,info@bayrockcafe.com,https://bayrockcafe.com/,True,,bayrockcafe.com,,,,,5,70,high,SEO audit + visibility upgrade,osm,2026-05-04T13:12:10.490486Z
Chef Jack,restaurant,Mount Lebanon,LB,Rond Point Wakim,33.8699535,35.6077322,+9614870324,,,,,,,,,,2,30,high,"RTYLR commerce OS (POS, online ordering, CRM)",osm,2026-05-04T13:12:10.490486Z
Il Palmito,restaurant,Mount Lebanon,LB,,33.8731393,35.6111137,+9614874079,,,,,,,,,,1,30,high,"RTYLR commerce OS (POS, online ordering, CRM)",osm,2026-05-04T13:12:10.490486Z
فرن بدارو ستريت,bakery,Beirut,LB,,33.8739835,35.51615,+9611381232,,,,,,,,,,1,23,medium,Full digital launch (brand + website + social setup),osm,2026-05-04T13:12:10.490486Z
Jean-Claude,restaurant,Beirut,LB,"Achrafieh Debbas, بيروت",33.8922174,35.5194833,+9611333532,info@breakfast-barn.com,https://www.breakfast-barn.com/,False,,,,,,,4,70,high,Website rebuild + maintenance,osm,2026-05-04T13:12:10.490486Z
L'Abeille d'Or,bakery,Beirut,LB,,33.8882891,35.5248539,+9611204714,,,,,,,,,,1,23,medium,Full digital launch (brand + website + social setup),osm,2026-05-04T13:12:10.490486Z
سانت جاك زكريت,pharmacy,Mount Lebanon,LB,,33.9366818,35.6299333,+9614915730,,,,,,,,,,1,23,medium,Full digital launch (brand + website + social setup),osm,2026-05-04T13:12:10.490486Z
ة مربوطة,restaurant,Beirut,LB,Hamra,33.8958908,35.4828701,+9611743882,,,,https://www.facebook.com/tmarbouta/,,,,,,3,30,high,Website launch + capture their existing audience,osm,2026-05-04T13:12:10.490486Z
Kampaï,restaurant,Beirut,LB,شارع رفيق سلوم,33.8991653,35.5006417,+9611999093,,http://www.kampai.co,True,,media,,,,,4,50,high,SEO audit + visibility upgrade,osm,2026-05-04T13:12:10.490486Z
Akiki Engineering,company,Beirut,LB,"Rue Saïdé, Beyrouth",33.8869688,35.529373,+9611216022,,,,,,,,,,2,15,low,Full digital launch (brand + website + social setup),osm,2026-05-04T13:12:10.490486Z
شركة سي إم إم للتوريدات والخدمات,company,Beirut,LB,"شارع فؤاد شهاب, سن الفيل",33.8701594,35.5423512,+9611512820,purchase@cmm-hc.com,,,,,,,,,3,35,low,Full digital launch (brand + website + social setup),osm,2026-05-04T13:12:10.490486Z
صيدلية الصباح,pharmacy,Mount Lebanon,LB,الضبية,33.9492897,35.5954365,+9614544337,,,,,,,,,,2,23,medium,Full digital launch (brand + website + social setup),osm,2026-05-04T13:12:10.490486Z
دار الحوراء الطبي,clinic,Beirut,LB,"بئر العبد, حارة حريك",33.8549457,35.5117937,+9611544889,,,,,,,,,,2,30,high,Lead-gen website + Google Ads launch,osm,2026-05-04T13:12:10.490486Z
Resto Ghazar,restaurant,Mount Lebanon,LB,,33.9136338,35.5862727,+9614408060,,,,,,,,,,1,30,high,"RTYLR commerce OS (POS, online ordering, CRM)",osm,2026-05-04T13:12:10.490486Z
المنازل,guest_house,Akkar,LB,القبيات,34.5668178,36.2797343,+9616350991,lesdemeureskobayth@gmail.com,,,,,,,,,3,50,high,"RTYLR commerce OS (POS, online ordering, CRM)",osm,2026-05-04T13:12:10.490486Z
Bon Goût,confectionery,North Lebanon,LB,,34.4386038,35.8373664,+9616431503,,,,,,,,,,1,23,medium,Full digital launch (brand + website + social setup),osm,2026-05-04T13:12:10.490486Z
Rassif Coffee & Tea,cafe,North Lebanon,LB,شارع عشير الدايه,34.423443,35.8263942,+9616412772,,,,,,,,,,2,30,high,"RTYLR commerce OS (POS, online ordering, CRM)",osm,2026-05-04T13:12:10.490486Z
شركة برودانت,dentist,Beirut,LB,,33.8829203,35.525581,+9614717332,info@prodent-me.com,https://prodent-me.com/,True,,media,+9613485185,,,,5,85,high,SEO audit + visibility upgrade,osm,2026-05-04T13:12:10.490486Z
Roland El Murr,driving_school,Beirut,LB,,33.8867924,35.5283434,+9611326200,,https://www.facebook.com/pages/Roland-El-Murr-Driving-School,True,,,,,,,2,33,medium,SEO audit + visibility upgrade,osm,2026-05-04T13:12:10.490486Z
Divvy,restaurant,Beirut,LB,,33.8970409,35.525162,+9611444020,,,,,,,,,,1,30,high,"RTYLR commerce OS (POS, online ordering, CRM)",osm,2026-05-04T13:12:10.490486Z
مستشفى الراعي,hospital,South Lebanon,LB,صيدا سينيق,33.5316527,35.3624088,+961722202396172220249617222025,,,,,,,,,,2,23,medium,Full digital launch (brand + website + social setup),osm,2026-05-04T13:12:10.490486Z
Librairie Freiha,stationery,Beirut,LB,"شارع ساسين, الاشرفية",33.8859181,35.520522,+9611324204,info@frayhamedia.com,http://www.frayhamedia.com,True,,400,,,,,5,63,medium,SEO audit + visibility upgrade,osm,2026-05-04T13:12:10.490486Z
فرن الوفاء,bakery,South Lebanon,LB,طريق صيدا القديمة,33.8680505,35.5160366,+9611383675,info@alwafaabakery.com,http://alwafaabakery.com/,True,,media,,,,,5,63,medium,SEO audit + visibility upgrade,osm,2026-05-04T13:12:10.490486Z
Socrate Restaurant,restaurant,Beirut,LB,"شارع 64, بيروت",33.8660247,35.487544,+9611846646,,https://www.socrate.com,False,,,,,,,3,50,high,Website rebuild + maintenance,osm,2026-05-04T13:12:10.490486Z
Helado,ice_cream,Mount Lebanon,LB,,34.0002815,35.6490489,+9619938897,,,,,,,,,,1,30,high,"RTYLR commerce OS (POS, online ordering, CRM)",osm,2026-05-04T13:12:10.490486Z
Caesar's Park Hotel,hotel,Beirut,LB,,33.8925519,35.484219,+961747711,,,,,,,,,,1,30,high,"RTYLR commerce OS (POS, online ordering, CRM)",osm,2026-05-04T13:12:10.490486Z
Crepaway,restaurant,Beirut,LB,Hamra Street,33.8963489,35.4783316,+9611289389,,http://www.crepaway.com/,True,https://m.facebook.com/crepaway/,crepaway,,https://linkedin.com/company/crepaway,,,5,50,high,SEO audit + visibility upgrade,osm,2026-05-04T13:12:10.490486Z
ملحمة البتول,butcher,Akkar,LB,,34.5892575,36.2292191,+9616830601,,,,,,,,,,1,23,medium,Full digital launch (brand + website + social setup),osm,2026-05-04T13:12:10.490486Z
Rose d'Art,florist,Beirut,LB,,33.8751907,35.5236027,+9611612694,,,,,,,,,,1,23,medium,Full digital launch (brand + website + social setup),osm,2026-05-04T13:12:10.490486Z
Carrefour,supermarket,Beirut,LB,,33.8610892,35.5296799,+9611296300,,https://www.carrefourlebanon.com/,False,,,,,,,2,43,medium,Website rebuild + maintenance,osm,2026-05-04T13:12:10.490486Z
Caravan Serail,restaurant,Beirut,LB,Rue Commodor,33.8951501,35.4806784,+9611350199,,,,,,,,,,2,30,high,"RTYLR commerce OS (POS, online ordering, CRM)",osm,2026-05-04T13:12:10.490486Z
فروج طارق,restaurant,Beirut,LB,,33.8480115,35.5074415,+9611559454,,,,,,,,,,1,30,high,"RTYLR commerce OS (POS, online ordering, CRM)",osm,2026-05-04T13:12:10.490486Z
فندق لا ميراج,hotel,Mount Lebanon,LB,أتستراد البحر,34.0086343,35.648647,+9619851636,,,,,,,,,,2,30,high,"RTYLR commerce OS (POS, online ordering, CRM)",osm,2026-05-04T13:12:10.490486Z
The Standard II,hotel,Beirut,LB,,33.8976837,35.483667,+9611735832,info@beiruthome.com,,,,,,,,,2,50,high,"RTYLR commerce OS (POS, online ordering, CRM)",osm,2026-05-04T13:12:10.490486Z
Cash and Carry,garden_centre,Beirut,LB,,33.8859122,35.4822217,+9611788711,info@candclb.com,,,,,,,,,2,43,medium,Full digital launch (brand + website + social setup),osm,2026-05-04T13:12:10.490486Z
Pizza guys,fast_food,Beirut,LB,,33.895079,35.5149887,+9611447441,,,,,,,,,,1,30,high,"RTYLR commerce OS (POS, online ordering, CRM)",osm,2026-05-04T13:12:10.490486Z
El Qontar Guesthouse,hostel,Mount Lebanon,LB,,33.8909494,35.7411052,+9614295043,,,,,,,,,,1,30,high,Full digital launch (brand + website + social setup),osm,2026-05-04T13:12:10.490486Z
Mr. Brown,restaurant,Beirut,LB,جادة إلياس سركيس,33.8867289,35.5176563,+9611745545,,https://mrbrowndiner.com/,True,,media,,,,,4,50,high,SEO audit + visibility upgrade,osm,2026-05-04T13:12:10.490486Z
المولينو,restaurant,North Lebanon,LB,,34.1225485,35.6431934,+9619541555,,,,,,,,,,1,30,high,"RTYLR commerce OS (POS, online ordering, CRM)",osm,2026-05-04T13:12:10.490486Z
المدرسة الأنطوانيّة - جمهور,school,Mount Lebanon,LB,,33.8271998,35.5601773,+9615453233,info@antonines-hazmieh.edu.lb,https://www.antonines-hazmieh.edu.lb/,True,,,,,,,3,53,medium,SEO audit + visibility upgrade,osm,2026-05-04T13:12:10.490486Z
Soto Liban,restaurant,Beirut,LB,شارع إبراهيم عبد العال,33.896631,35.4824971,+9611744144,,,,,,,,,,2,30,high,"RTYLR commerce OS (POS, online ordering, CRM)",osm,2026-05-04T13:12:10.490486Z
كمبيوتر أيكو,computer,Mount Lebanon,LB,طريق ميرنا الشالوحي,33.8853399,35.5468393,+9611488106,,http://www.computerecho.com,True,,,,,,,3,40,high,SEO audit + visibility upgrade,osm,2026-05-04T13:12:10.490486Z
Toy House,toys,Mount Lebanon,LB,"أتستراد البحر, عاليه",33.8065061,35.5999714,+9615558124,toyhouse-lb@hotmail.com,http://www.toyhouse-lb.com,False,,,,,,,4,63,medium,Website rebuild + maintenance,osm,2026-05-04T13:12:10.490486Z
Darseen Restaurant,restaurant,Mount Lebanon,LB,sea road zouk,33.9781179,35.6131547,+9619221067,,,,,,,,,,2,30,high,"RTYLR commerce OS (POS, online ordering, CRM)",osm,2026-05-04T13:12:10.490486Z
master peintures,hardware,Beirut,LB,"42, أوتوستراد هادي نصرالله",33.8498718,35.5155769,+9611542880,master_paints@hotmail.com,,,,,,,,,3,43,medium,Full digital launch (brand + website + social setup),osm,2026-05-04T13:12:10.490486Z
أنتز,gift,Beirut,LB,,33.8987939,35.4808545,+9613184211,,,,,https://www.instagram.com/antsinsta/,,,,,2,33,medium,E-commerce launch + Instagram-to-store funnel,osm,2026-05-04T13:12:10.490486Z
ألدورادو,clothes,North Lebanon,LB,,34.1232351,35.6525752,+9619542153,,,,,,,,,,1,30,high,Full digital launch (brand + website + social setup),osm,2026-05-04T13:12:10.490486Z
عيادة بيروت للعيون دكتور الكسندر عاصي,clinic,Beirut,LB,جادة سامي الصلح,33.8751539,35.5181241,+9611399299,,http://www.beiruteyeclinic.com/,True,,,,,,,3,40,high,SEO audit + visibility upgrade,osm,2026-05-04T13:12:10.490486Z
Ferdinand,bar,Beirut,LB,شارع المهتما غاندي,33.8970906,35.4800335,+9611355955,,,,,,,,,,2,30,high,"RTYLR commerce OS (POS, online ordering, CRM)",osm,2026-05-04T13:12:10.490486Z
Basic Outlet,variety_store,Beirut,LB,,33.8528812,35.5383466,+9615953140,impallari@gmail.com,https://basicoutletstores.com/,True,,font,,https://linkedin.com/company/basic-outlet-stores,,,5,63,medium,SEO audit + visibility upgrade,osm,2026-05-04T13:12:10.490486Z
The Capital Insurance and Reinsurance,service,Beirut,LB,"Mar Maroun, Bayrut 00055513, Lebanon",33.8726379,35.5398461,+9611486686,capital@capital-cir.com,http://www.capital-cir.com/,True,,capitalinsleb,,,4.3,44,5,60,low,Digital marketing retainer (Meta + Google + content),google_places|osm,2026-05-04T13:12:10.493892Z
فنيش,variety_store,Beirut,LB,Odaimi Street,33.8545439,35.5054623,+9611540786,hasanfneish@hotmail.com,,,,,,,,,3,43,medium,Full digital launch (brand + website + social setup),osm,2026-05-04T13:12:10.490486Z
Siena Hotel,hotel,Mount Lebanon,LB,,34.0063773,35.6464615,+9619854472,,,,,,,,,,1,30,high,"RTYLR commerce OS (POS, online ordering, CRM)",osm,2026-05-04T13:12:10.490486Z
Luxor Hotel,hotel,Mount Lebanon,LB,,34.0061905,35.6465755,+9619852002,,,,,,,,,,1,30,high,"RTYLR commerce OS (POS, online ordering, CRM)",osm,2026-05-04T13:12:10.490486Z
الصفارية,hotel,Mount Lebanon,LB,,34.0141934,35.6555915,+9619921066,info@hotelloriot.com,http://www.hotelloriot.com,False,,,,,,,3,70,high,Website rebuild + maintenance,osm,2026-05-04T13:12:10.490486Z
Tartina Di Mare,restaurant,Mount Lebanon,LB,,33.9799744,35.627054,+9619912292,,http://www.tartinadimare.com,False,,,,,,,2,50,high,Website rebuild + maintenance,osm,2026-05-04T13:12:10.490486Z
Wooden Bakery,bakery,Mount Lebanon,LB,,34.0115542,35.6516503,+9619853406,,,,,,,,,,1,23,medium,Full digital launch (brand + website + social setup),osm,2026-05-04T13:12:10.490486Z
Monte Mare Hotel,hotel,Mount Lebanon,LB,,34.0077085,35.6458125,+9619851624,,,,,,,,,,1,30,high,"RTYLR commerce OS (POS, online ordering, CRM)",osm,2026-05-04T13:12:10.490486Z
Mateus Hotel,hotel,Mount Lebanon,LB,,34.0088215,35.6487047,+9619856200,,,,,,,,,,1,30,high,"RTYLR commerce OS (POS, online ordering, CRM)",osm,2026-05-04T13:12:10.490486Z
Wooden Bakery,bakery,Mount Lebanon,LB,,33.917651,35.6755175,+9614984121,info@woodenbakery.com,http://www.woodenbakery.com/,True,,woodenbakery.com,,https://linkedin.com/company/wooden-bakery,,,5,63,medium,SEO audit + visibility upgrade,osm,2026-05-04T13:12:10.490486Z
فندق بروميناد,hotel,Mount Lebanon,LB,,33.9003903,35.5732359,+9611874774,,,,,,,,,,1,30,high,"RTYLR commerce OS (POS, online ordering, CRM)",osm,2026-05-04T13:12:10.490486Z
Spirit Sail The Gallery,alcohol,Mount Lebanon,LB,Zalqa,33.8954625,35.5761993,+9611895212,,,,,,,,,,2,23,medium,Full digital launch (brand + website + social setup),osm,2026-05-04T13:12:10.490486Z
Malak Al Tawouk,fast_food,North Lebanon,LB,,34.1233908,35.6535674,+9619228005,,http://www.malakaltawouk.com/,True,,keyframes,,,,,3,50,high,SEO audit + visibility upgrade,osm,2026-05-04T13:12:10.490486Z
السوق الحرة بيروت,mall,Mount Lebanon,LB,,33.8256133,35.4923154,+9611629520,info@pac.com.lb,http://www.beirutdutyfree.com/,True,,beirutdutyfree,,https://linkedin.com/company/phoenicia-aer-rianta-company,,,5,63,medium,SEO audit + visibility upgrade,osm,2026-05-04T13:12:10.490486Z
بنك البحر المتوسط,bank,Mount Lebanon,LB,,33.8253338,35.4937038,+9611629360,,https://www.bankmed.com.lb/,True,,bankmedleb,,,,,3,43,medium,SEO audit + visibility upgrade,osm,2026-05-04T13:12:10.490486Z
بريد لبنان,post_office,Mount Lebanon,LB,,33.8312188,35.4978223,+9611629629,,,,,,,,,,1,23,medium,Full digital launch (brand + website + social setup),osm,2026-05-04T13:12:10.490486Z
Ets. Sayah,optician,Mount Lebanon,LB,,33.9213611,35.6818181,+9614980337,,,,,,,,,,1,30,high,Lead-gen website + Google Ads launch,osm,2026-05-04T13:12:10.490486Z
Pharmacie Bikfaya,pharmacy,Mount Lebanon,LB,,33.9221151,35.6863901,+9614984981,,,,,,,,,,1,23,medium,Full digital launch (brand + website + social setup),osm,2026-05-04T13:12:10.490486Z
Cnam University Bikfaya,university,Mount Lebanon,LB,,33.9170663,35.6765279,+9614981321,cms@cnam.fr,http://www.cnam-liban.fr/,True,,cnam.fr,,,,,4,63,medium,SEO audit + visibility upgrade,osm,2026-05-04T13:12:10.490486Z
Beit Nazha,restaurant,North Lebanon,LB,,34.1213537,35.6470812,+9619540057,,,,,,,,,,1,30,high,"RTYLR commerce OS (POS, online ordering, CRM)",osm,2026-05-04T13:12:10.490486Z
é Baladi,restaurant,North Lebanon,LB,,34.1214854,35.647112,+9619542224,,,,,,,,,,1,30,high,"RTYLR commerce OS (POS, online ordering, CRM)",osm,2026-05-04T13:12:10.490486Z
أجنحة أربن سنترال - بيروت,hotel,Beirut,LB,"Nefaa, دكوانة",33.880099,35.5440947,+9611488927,reservation@urbancentralsuites.com,,,,,,,,,3,50,high,"RTYLR commerce OS (POS, online ordering, CRM)",osm,2026-05-04T13:12:10.490486Z
كلاي,restaurant,Mount Lebanon,LB,,33.9215239,35.6330418,+9614914577,,,,,,,,,,1,30,high,"RTYLR commerce OS (POS, online ordering, CRM)",osm,2026-05-04T13:12:10.490486Z
بيتزا هت,restaurant,Mount Lebanon,LB,,33.9254009,35.632545,+9614928581,,https://www.pizzahut-lb.com/,False,,,,,,,2,50,high,Website rebuild + maintenance,osm,2026-05-04T13:12:10.490486Z
Domino's,fast_food,Mount Lebanon,LB,,33.9239289,35.6150585,+9614924222,,https://www.dominos.com.lb/ar/,True,,supports,,,,,3,50,high,SEO audit + visibility upgrade,osm,2026-05-04T13:12:10.490486Z
Fahed Supermarket - Mtayleb,supermarket,Mount Lebanon,LB,"WJF6+FFJ, Mtaileb, Lebanon",33.9237095,35.6111453,+9614521003,,https://m.facebook.com/fahedyourcenter/,True,,,,,4.1,738,3,38,medium,"RTYLR commerce OS (POS, online ordering, CRM)",google_places|osm,2026-05-04T13:12:10.493892Z
Le Gourmet,restaurant,Mount Lebanon,LB,,33.9179143,35.6755233,+9614980876,,,,,,,,,,1,30,high,"RTYLR commerce OS (POS, online ordering, CRM)",osm,2026-05-04T13:12:10.490486Z
Kasso,clothes,Mount Lebanon,LB,,33.9195708,35.6790963,+9614980837,,,,,,,,,,1,30,high,Full digital launch (brand + website + social setup),osm,2026-05-04T13:12:10.490486Z
لو شركوتييه عون,supermarket,Beirut,LB,,33.8666789,35.5414265,+9611491946,,,,,,,,,,1,23,medium,"RTYLR commerce OS (POS, online ordering, CRM)",osm,2026-05-04T13:12:10.490486Z
لا شيكان,restaurant,Mount Lebanon,LB,,33.9179842,35.6622487,+9614986633,,,,,,,,,,1,30,high,"RTYLR commerce OS (POS, online ordering, CRM)",osm,2026-05-04T13:12:10.490486Z
Carre Noir,clothes,North Lebanon,LB,"41, Jbail - Main Street - Near Serail",34.1204997,35.6494814,+9619548123,,,,,,,,,,2,30,high,Full digital launch (brand + website + social setup),osm,2026-05-04T13:12:10.490486Z
فندق أورينت برينس,hotel,Beirut,LB,"شارع أمين منيمنة, بيروت",33.8933692,35.4853969,+9611743930,,,,,,,,,,2,30,high,"RTYLR commerce OS (POS, online ordering, CRM)",osm,2026-05-04T13:12:10.490486Z
Bartartine,restaurant,Mount Lebanon,LB,,33.9345552,35.5912265,+9614543049,,,,,,,,,,1,30,high,"RTYLR commerce OS (POS, online ordering, CRM)",osm,2026-05-04T13:12:10.490486Z
Sleep Comfort Grand Magasin,department_store,Beirut,LB,Rue El Khodr,33.8996986,35.5338621,+9611444444,,https://sleepcomfort.com/,True,,context,,,,,4,43,medium,SEO audit + visibility upgrade,osm,2026-05-04T13:12:10.490486Z
نقابة المحامين في طرابلس,lawyer,North Lebanon,LB,,34.4331203,35.8340754,+9616434300,,,,,,,,,,1,30,high,Lead-gen website + Google Ads launch,osm,2026-05-04T13:12:10.490486Z
شوشي وي,restaurant,Mount Lebanon,LB,الضبية,33.9445911,35.5925748,+9614547540,,,,,,,,,,2,30,high,"RTYLR commerce OS (POS, online ordering, CRM)",osm,2026-05-04T13:12:10.490486Z
Maliks,computer,Mount Lebanon,LB,,33.9248991,35.5878189,+9614410442,,,,,,,,,,1,30,high,Full digital launch (brand + website + social setup),osm,2026-05-04T13:12:10.490486Z
Hanna Bou Zeid,bakery,Bekaa,LB,,33.8334223,35.9087303,+9618802903,,,,,,,,,,1,23,medium,Full digital launch (brand + website + social setup),osm,2026-05-04T13:12:10.490486Z
Keif,restaurant,Mount Lebanon,LB,,33.918872,35.5867603,+9614520003,,,,,,,,,,1,30,high,"RTYLR commerce OS (POS, online ordering, CRM)",osm,2026-05-04T13:12:10.490486Z
Porky's,butcher,Mount Lebanon,LB,,33.9916015,35.6511567,+9619933323,info@porkyslebanon.com,http://www.porkyslebanon.com/,True,,https://www.instagram.com/porkyslebanon/,,,,,4,63,medium,SEO audit + visibility upgrade,osm,2026-05-04T13:12:10.490486Z
Azrak,ice_cream,Mount Lebanon,LB,"70, Azrak",33.89058,35.6677389,+9614821118,Riri@azrak.biz,http://azrak.biz,True,,media,,,,,5,70,high,SEO audit + visibility upgrade,osm,2026-05-04T13:12:10.490486Z
سورجل فرن الشباك,ice_cream,Beirut,LB,طريق الشام,33.8695835,35.5252482,+9611290902,,https://www.zomato.com/beirut/surgel-furn-el-chebbak-baabda-district,False,,,,,,,3,50,high,Website rebuild + maintenance,osm,2026-05-04T13:12:10.490486Z
مسعود,pharmacy,Mount Lebanon,LB,,33.941036,35.5919307,+9614546906,massoudpharmacy@outlook.com;faresmassoud@gmail.com,,,,,,,,,2,43,medium,Full digital launch (brand + website + social setup),osm,2026-05-04T13:12:10.490486Z
تصوير,photo,Beirut,LB,,33.8912398,35.5146904,+9611202996,,http://www.taswir.com/,True,,,,,,,2,33,medium,SEO audit + visibility upgrade,osm,2026-05-04T13:12:10.490486Z
Club de Campagne Ehden,hotel,North Lebanon,LB,,34.2902949,35.9475499,+9616560651,info@ehdencountryclubhotel.com,http://www.ehdencountryclubhotel.com,True,,sqs,+96170228518,https://linkedin.com/company/ehden-country-club,,,6,85,high,SEO audit + visibility upgrade,osm,2026-05-04T13:12:10.490486Z
مدرسة القديسة ريتا,school,Mount Lebanon,LB,الضبية,33.9446192,35.5932199,+9614544125,,http://ecolesainterita.edu.lb/,False,,,,,,,3,43,medium,Website rebuild + maintenance,osm,2026-05-04T13:12:10.490486Z
بتاكوم إو إم تي,mobile_phone,Mount Lebanon,LB,"1, شارع 58",33.8373384,35.5297479,+9615465966,betacomlb@hotmail.com,,,,,,,,,3,43,medium,Full digital launch (brand + website + social setup),osm,2026-05-04T13:12:10.490486Z
التحاليل المختبرية الطبية,clinic,Beirut,LB,,33.8533641,35.5184977,+9611558702,confidencelab@gmail.com,,,,,,,,,2,50,high,Lead-gen website + Google Ads launch,osm,2026-05-04T13:12:10.490486Z
مركز الضنية الطبي,clinic,Akkar,LB,"طريق طرابس - الضنية, مراح السراج",34.4178079,35.9971648,+9616240511,,,,,,,,,,2,30,high,Lead-gen website + Google Ads launch,osm,2026-05-04T13:12:10.490486Z
البنك اللبناني للتجارة,bank,Bekaa,LB,,33.8398838,35.9120549,+9618829410,,,,,,,,,,1,23,medium,Full digital launch (brand + website + social setup),osm,2026-05-04T13:12:10.490486Z
Jabal Amel Hospital - مستشفى جبل عامل,hospital,South Lebanon,LB,"76H9+87M صور - عباسية، جل البحر, Abbassiyé, Lebanon",33.2783125,35.2181875,+9617740343,,http://jabalamelhospital.com/,True,,media,,,3.8,72,4,58,medium,Reputation + SEO turnaround,google_places|osm,2026-05-04T13:12:10.493892Z
بورغر هوس,restaurant,Bekaa,LB,بريتال,33.9337503,36.1527509,+9611071719,,,,,,,,,,2,30,high,"RTYLR commerce OS (POS, online ordering, CRM)",osm,2026-05-04T13:12:10.490486Z
نينو ستور,toys,Beirut,LB,شارع الجزائر,33.890188,35.4914877,+9611739999,,,,,,,,,,2,23,medium,Full digital launch (brand + website + social setup),osm,2026-05-04T13:12:10.490486Z
المحامي أنطون مارون,lawyer,Beirut,LB,"شارع فؤاد شهاب, سن الفيل",33.8698963,35.5423873,+9611498285,antoun.maroun@hotmail.com,,,,,,,,,3,50,high,Lead-gen website + Google Ads launch,osm,2026-05-04T13:12:10.490486Z
Randa Tabbah Jewelry,jewelry,Beirut,LB,شارع مريم جحشان,33.889671,35.5189105,+9611215288,info@randatabbah.com,https://www.randatabbah.com/,True,,font,,,,,5,70,high,SEO audit + visibility upgrade,osm,2026-05-04T13:12:10.490486Z
Randa Tabbah Jewelry,jewelry,Beirut,LB,شارع المخلصية,33.8940078,35.508219,+9611975030,info@randatabbah.com,https://www.randatabbah.com/,True,,font,,,,,5,70,high,SEO audit + visibility upgrade,osm,2026-05-04T13:12:10.490486Z
مؤسّسة أنطوني داغر,hardware,Mount Lebanon,LB,,33.8221639,35.5308416,+9615431960,,,,,,,,,,1,23,medium,Full digital launch (brand + website + social setup),osm,2026-05-04T13:12:10.490486Z
Class Supermarket,supermarket,Mount Lebanon,LB,,33.816914,35.5324905,+9615441965,,,,,,,,,,1,23,medium,"RTYLR commerce OS (POS, online ordering, CRM)",osm,2026-05-04T13:12:10.490486Z
بقجة,furniture,Beirut,LB,,33.8939076,35.508164,+9611975976,info@bokja.com,http://www.bokja.com,False,,,,,,,3,63,medium,Website rebuild + maintenance,osm,2026-05-04T13:12:10.490486Z
Mario e Mario,restaurant,Beirut,LB,,33.8954736,35.5325678,+9611444036,,,,https://facebook.com/marioemariotrattoria/,https://www.instagram.com/marioemario/,,,,,2,40,high,Website launch + capture their existing audience,osm,2026-05-04T13:12:10.490486Z
Palmyra Hotel,hotel,Baalbek-Hermel,LB,,34.0036726,36.2045786,+9618370230,,,,,,,,,,1,30,high,"RTYLR commerce OS (POS, online ordering, CRM)",osm,2026-05-04T13:12:10.490486Z
مستشفى الساحل العام,hospital,Beirut,LB,Dergham street,33.8579454,35.5036632,+9611858333,info@sahelhospital.com.lb,https://www.sahelhospital.com/ar,False,,,,,,,4,63,medium,Website rebuild + maintenance,osm,2026-05-04T13:12:10.490486Z
معجنات المينا,bakery,Beirut,LB,,33.9003463,35.4894372,+9611375393,,,,,,,,,,1,23,medium,Full digital launch (brand + website + social setup),osm,2026-05-04T13:12:10.490486Z
El Argentino,convenience,Beirut,LB,,33.9000105,35.4909862,+9611368652,,,,,,,,,,1,23,medium,"RTYLR commerce OS (POS, online ordering, CRM)",osm,2026-05-04T13:12:10.490486Z
معجنات سعد,bakery,Beirut,LB,,33.9001542,35.4909811,+9611365683,,,,,,,,,,1,23,medium,Full digital launch (brand + website + social setup),osm,2026-05-04T13:12:10.490486Z
مصبغة,dry_cleaning,Beirut,LB,,33.9001517,35.49103,+9611363185,,,,,,,,,,1,23,medium,Full digital launch (brand + website + social setup),osm,2026-05-04T13:12:10.490486Z
Hotel AKL,hotel,Bekaa,LB,Berdawni Promenade,33.8529392,35.8953987,+9618820701,,,,,,,,,,2,30,high,"RTYLR commerce OS (POS, online ordering, CRM)",osm,2026-05-04T13:12:10.490486Z
هوت بايت,restaurant,Beirut,LB,"بير العبد, حارة حريك",33.8545301,35.5126448,+9611555616,,,,,,,,,,2,30,high,"RTYLR commerce OS (POS, online ordering, CRM)",osm,2026-05-04T13:12:10.490486Z
Q-Hotel,hotel,Beirut,LB,شارع روما,33.8957723,35.4878964,+9611345500,,,,,,,,,,2,30,high,"RTYLR commerce OS (POS, online ordering, CRM)",osm,2026-05-04T13:12:10.490486Z
Smart Vision,company,North Lebanon,LB,اسكندر غريب,34.4378252,35.8309944,+9616438494,smartvisionlb@hotmail.com,,,,,,,,,3,35,low,Full digital launch (brand + website + social setup),osm,2026-05-04T13:12:10.490486Z
وسترن يونيون,bank,Beirut,LB,,33.8714619,35.5206818,+9611391000,,,,,,,,,,1,23,medium,Full digital launch (brand + website + social setup),osm,2026-05-04T13:12:10.490486Z
مطعم عالبحر,restaurant,North Lebanon,LB,,34.1300587,35.6416186,+9619541116,,,,,,,,,,1,30,high,"RTYLR commerce OS (POS, online ordering, CRM)",osm,2026-05-04T13:12:10.490486Z
Galerie Bois Rouge,furniture,Mount Lebanon,LB,"اتستراد اميل لحود, Hazmieh",33.8501498,35.5452394,+9615454802,,,,,,,,,,2,23,medium,Full digital launch (brand + website + social setup),osm,2026-05-04T13:12:10.490486Z
BMG - Bikhazi Medical Group,hospital,Beirut,LB,"Beirut, Lebanon",33.898572,35.4841872,+9611742140,info@bmg.com.lb,http://www.bmg.com.lb,True,,bmg.com.lb,,https://linkedin.com/company/bikhazi-medical-group-holding-sal,3.9,16,6,78,medium,SEO audit + visibility upgrade,google_places|osm,2026-05-04T13:12:10.493892Z
خوري كلينرز,laundry,Mount Lebanon,LB,,33.8630954,35.5493986,+9611689629,,https://www.khourycleaners.com/,True,,media,,,,,3,43,medium,SEO audit + visibility upgrade,osm,2026-05-04T13:12:10.490486Z
مطعم العجمي,restaurant,Beirut,LB,,33.8812318,35.4809156,+9611802260,,,,,,,,,,1,30,high,"RTYLR commerce OS (POS, online ordering, CRM)",osm,2026-05-04T13:12:10.490486Z
مطبعة عند رياض,copyshop,Beirut,LB,,33.8984062,35.4837084,+9611341079,support@3indriad.com,,,,,,,,,2,35,low,Full digital launch (brand + website + social setup),osm,2026-05-04T13:12:10.490486Z
مطعم قاووق,restaurant,Beirut,LB,,33.8940652,35.4924612,+9611737058,,,,,,,,,,1,30,high,"RTYLR commerce OS (POS, online ordering, CRM)",osm,2026-05-04T13:12:10.490486Z
Pharmacie Rania,pharmacy,Mount Lebanon,LB,,33.9450101,35.5928664,+9614540511,,,,,,,,,,1,23,medium,Full digital launch (brand + website + social setup),osm,2026-05-04T13:12:10.490486Z
Al Baba Sweets,restaurant,Beirut,LB,,33.8717062,35.5131536,+9611399500,,,,,,,,,,1,30,high,"RTYLR commerce OS (POS, online ordering, CRM)",osm,2026-05-04T13:12:10.490486Z
CTS travel & Tourism,travel_agency,Beirut,LB,,33.8955124,35.4911775,+9611354333,,https://www.cts.com.lb/,True,,myctstravel,,https://linkedin.com/company/cts-travel-tourism,,,4,43,medium,SEO audit + visibility upgrade,osm,2026-05-04T13:12:10.490486Z
Worldwide Travel and Tourism,travel_agency,Beirut,LB,"ndjos, Bayrut, Lebanon",33.893791300000004,35.5017767,+9611366505,,http://www.worldwidetravel-lb.com/,True,,,,,4.5,15,3,38,medium,SEO audit + visibility upgrade,google_places|osm,2026-05-04T13:12:10.493892Z
"Newtown Specialty Coffee Roasters,، Mina 1300",cafe,North Lebanon,LB,"1300, شارع رياض الصلح, Tripoli",34.4433452,35.8259909,+9616225002,,http://newtown.wheeeze.site/,False,,,,,,,3,50,high,Website rebuild + maintenance,osm,2026-05-04T13:12:10.490486Z
دُكَّان ماركت,supermarket,North Lebanon,LB,,34.4440008,35.8256774,+9616220055,,,,,,,,,,1,23,medium,"RTYLR commerce OS (POS, online ordering, CRM)",osm,2026-05-04T13:12:10.490486Z
فريحة ميديا,advertising_agency,Beirut,LB,"شارع ألفريد نقاش, بيروت",33.8900113,35.5206627,+9611201740,info@frayhamedia.com,http://www.frayhamedia.com,True,,400,,,,,5,70,high,SEO audit + visibility upgrade,osm,2026-05-04T13:12:10.490486Z
Maroun’s Gifts,gift,Beirut,LB,,33.8972547,35.5262072,+9611565235,,,,,,,,,,1,23,medium,Full digital launch (brand + website + social setup),osm,2026-05-04T13:12:10.490486Z
برغر وفلافل الخضر,fast_food,Beirut,LB,,33.897432,35.5335638,+9611442850,,,,,,,,,,1,30,high,"RTYLR commerce OS (POS, online ordering, CRM)",osm,2026-05-04T13:12:10.490486Z
قهوة الروضة,restaurant,Beirut,LB,,33.8954232,35.4687138,+9611743348,,,,,,,,,,1,30,high,"RTYLR commerce OS (POS, online ordering, CRM)",osm,2026-05-04T13:12:10.490486Z
Swiss Butter,restaurant,Mount Lebanon,LB,,33.9062265,35.579941,+9614712571,,,,,,,,,,1,30,high,"RTYLR commerce OS (POS, online ordering, CRM)",osm,2026-05-04T13:12:10.490486Z
Wooden Bakery,bakery,North Lebanon,LB,,34.3223923,35.7374471,+9616542898,,,,,,,,,,1,23,medium,Full digital launch (brand + website + social setup),osm,2026-05-04T13:12:10.490486Z
باش منقوش,bakery,Beirut,LB,,33.885206,35.4945969,+9611304527,,,,,,,,,,1,23,medium,Full digital launch (brand + website + social setup),osm,2026-05-04T13:12:10.490486Z
ديليس,butcher,Beirut,LB,,33.8852014,35.4946686,+9611312568,,,,,,,,,,1,23,medium,Full digital launch (brand + website + social setup),osm,2026-05-04T13:12:10.490486Z
سوزوكي دراجات نارية,company,Beirut,LB,Rue Fouad Chéhab,33.8757853,35.5409856,+9611496565,,https://suzukimotorcycleslebanon.com/,False,,,,,,,3,35,low,Website rebuild + maintenance,osm,2026-05-04T13:12:10.490486Z
Gigieffe,clothes,Beirut,LB,Fouad Shehab Street,33.8751773,35.5411772,+9611482278,,,,,,,,,,2,30,high,Full digital launch (brand + website + social setup),osm,2026-05-04T13:12:10.490486Z
محمصة الرفاعي,convenience,Beirut,LB,Fouad Shehab Street,33.8701108,35.5418662,+9611495779,help@alrifai.com,https://store.alrifai.com,True,,context,,https://linkedin.com/company/alrifai,,,6,63,medium,SEO audit + visibility upgrade,osm,2026-05-04T13:12:10.490486Z
صيدلية خوري,pharmacy,Beirut,LB,سن الفيل,33.8694913,35.5426102,+9611490034,,,,,,,,,,2,23,medium,Full digital launch (brand + website + social setup),osm,2026-05-04T13:12:10.490486Z
بنك بيروت,bank,Beirut,LB,"شارع فؤاد شهاب, سن الفيل",33.8721561,35.5415018,+9615955262,,https://www.bankofbeirut.com,True,,,,,,,3,33,medium,SEO audit + visibility upgrade,osm,2026-05-04T13:12:10.490486Z
Byblos Bank,bank,Beirut,LB,Fouad Shehab Street,33.8723424,35.5414423,+9611485241,,http://www.byblosbank.com.lb,True,,byblosbanklebanon,,https://linkedin.com/company/byblos-bank,,,5,43,medium,SEO audit + visibility upgrade,osm,2026-05-04T13:12:10.490486Z
جورج نصر,department_store,Beirut,LB,"62, شارع 111, الدكوانة",33.877589,35.5411033,+9611482462,georgesnassr@georgesnassr.com,http://www.georgesnassr.com,True,,georgesnassr,,,,,5,63,medium,SEO audit + visibility upgrade,osm,2026-05-04T13:12:10.490486Z
Securite Assurance Head Office,service,Beirut,LB,"Fouad Chehab Avenue Gedco 3 Center 2nd Floor، Dekouaneh, Lebanon",33.8749859,35.5411424,+9611517100,,https://www.securiteassurance.com/,True,,keyframes,,,3.4,140,4,50,low,Reputation + SEO turnaround,google_places|osm,2026-05-04T13:12:10.493892Z
جمعية توحيد شباب لبنان,company,Mount Lebanon,LB,Debbiyeh highway,33.6820714,35.4643042,+9617985210,,https://unitelebanonyouth.org,False,,,,,,,3,35,low,Website rebuild + maintenance,osm,2026-05-04T13:12:10.490486Z
معمل التغذية,company,Mount Lebanon,LB,Debbiyeh Highway,33.6828797,35.4608286,+9615808808,,http://www.altaghziah.com/,True,,,,,,,3,25,low,SEO audit + visibility upgrade,osm,2026-05-04T13:12:10.490486Z
بوظة بشير,ice_cream,Beirut,LB,"1 طريق, سنّ الفيل",33.8747824,35.5408333,+9611497110,,https://www.bachir.com,True,,bachir.icecream,,,,,4,50,high,SEO audit + visibility upgrade,osm,2026-05-04T13:12:10.490486Z
Pistachio,fast_food,North Lebanon,LB,شارع رشيد كرامة,34.445172,35.8222349,+9616222209,,,,,,,,,,2,30,high,"RTYLR commerce OS (POS, online ordering, CRM)",osm,2026-05-04T13:12:10.490486Z
مركز خلدة لتحليل الطبية,hospital,Mount Lebanon,LB,Autoroute Maritime,33.7762102,35.4721157,+9615801971,,,,,,,,,,2,23,medium,Full digital launch (brand + website + social setup),osm,2026-05-04T13:12:10.490486Z
رفيق بواب,company,Mount Lebanon,LB,Debbiyeh,33.6826868,35.4622447,+9611340999,info@raficbawabco.com,http://raficbawabco.com,True,,raficbawabco,,,,,5,55,low,SEO audit + visibility upgrade,osm,2026-05-04T13:12:10.490486Z
مركز الدامور الطبي,clinic,Mount Lebanon,LB,الدامور,33.7286373,35.4546761,+9615603603,,http://damour-mc.com,True,,,,,,,3,40,high,SEO audit + visibility upgrade,osm,2026-05-04T13:12:10.490486Z
مقهى المندلون,restaurant,Mount Lebanon,LB,,33.9390658,35.5914226,+9614545411,,,,,,,,,,1,30,high,"RTYLR commerce OS (POS, online ordering, CRM)",osm,2026-05-04T13:12:10.490486Z
الجامعة الأرمنيّة المتحدة,college,Mount Lebanon,LB,برج حموﺪ‎‎,33.8870254,35.5480273,+96112415419611241641,uac@armprelacylb.org,,,,,,,,,3,43,medium,Full digital launch (brand + website + social setup),osm,2026-05-04T13:12:10.490486Z
مستشفى البرج,hospital,Mount Lebanon,LB,Osman Street,33.8427333,35.5093247,+96114747189611474719,,,,,,,,,,2,23,medium,Full digital launch (brand + website + social setup),osm,2026-05-04T13:12:10.490486Z
President Hotel,hotel,Mount Lebanon,LB,jounieh,34.0001067,35.6456894,+9619935135,,,,,,,,,,2,30,high,"RTYLR commerce OS (POS, online ordering, CRM)",osm,2026-05-04T13:12:10.490486Z
Margherita,restaurant,Mount Lebanon,LB,,33.986053,35.6345658,+9619830816,,https://www.pizzeriamargherita.com/,True,,,,,,,2,40,high,SEO audit + visibility upgrade,osm,2026-05-04T13:12:10.490486Z
Banque fédérale du Liban,bank,South Lebanon,LB,شارع صوراتي,33.8972694,35.4839563,+961134850796113485099611348509,,,,,,,,,,2,23,medium,Full digital launch (brand + website + social setup),osm,2026-05-04T13:12:10.490486Z
Microcity Computer Shop,computer,Beirut,LB,,33.8664176,35.4871994,+9611835478,,https://gomicrocity.com,True,,,,,,,2,40,high,SEO audit + visibility upgrade,osm,2026-05-04T13:12:10.490486Z
مندي حضرموت,restaurant,Beirut,LB,,33.8883238,35.4737799,+9611802233,,,,,,,,,,1,30,high,"RTYLR commerce OS (POS, online ordering, CRM)",osm,2026-05-04T13:12:10.490486Z
Salon Rachid For Men,beauty,Beirut,LB,Hamad,33.8717431,35.5042846,+9611651313,,,,,,,,,,2,30,high,Full digital launch (brand + website + social setup),osm,2026-05-04T13:12:10.490486Z
Dprime Solutions,advertising_agency,Mount Lebanon,LB,"Mirna Chalouhi Highway, بوشرية",33.8888922,35.5542793,+9611255420,info@dprime-solutions.com,https://dprime-solutions.com/,False,,,,,,,4,70,high,Website rebuild + maintenance,osm,2026-05-04T13:12:10.490486Z
Lagace Hotel,hotel,Mount Lebanon,LB,,33.9523557,35.6212937,+9619212975,,,,,,,,,,1,30,high,"RTYLR commerce OS (POS, online ordering, CRM)",osm,2026-05-04T13:12:10.490486Z
كوزموس للسياحة والسفر,travel_agency,Beirut,LB,جادة صائب سلام,33.8801593,35.4922366,+9611300153,cosmos.travel@hotmail.com,,,,,,,,,3,43,medium,Lead-gen website + Google Ads launch,osm,2026-05-04T13:12:10.490486Z
ampm,convenience,Beirut,LB,"Achrafieh-Charles Malek Avenue, Beyrouth",33.8920996,35.5194517,+9611320140,,https://www.facebook.com/pg/ampmmarketbeirut/posts/,True,,media,,,,,4,43,medium,SEO audit + visibility upgrade,osm,2026-05-04T13:12:10.490486Z
Le Lycee National,school,Mount Lebanon,LB,,33.79721,35.4926084,+9615805500,info@le-lycee-national.edu.lb,http://le-lycee-national.edu.lb,True,,media,,,,,4,63,medium,SEO audit + visibility upgrade,osm,2026-05-04T13:12:10.490486Z
Cube 3DP,computer,Mount Lebanon,LB,,33.860424,35.578392,+9614535745,hello@cube3dp.com,https://cube3dp.com,True,,context,+96171072269,,,,5,85,high,SEO audit + visibility upgrade,osm,2026-05-04T13:12:10.490486Z
سوي,restaurant,Mount Lebanon,LB,طريق برمانا الرئيسية,33.862721,35.5952574,+9614872187,,,,,,,,,,2,30,high,"RTYLR commerce OS (POS, online ordering, CRM)",osm,2026-05-04T13:12:10.490486Z
Escagrot,bakery,Beirut,LB,,33.9003839,35.4908778,+9611363213,,,,,,,,,,1,23,medium,Full digital launch (brand + website + social setup),osm,2026-05-04T13:12:10.490486Z
مطعم أهلا وسهلا فول وحمّص,restaurant,Beirut,LB,Beyrouth,33.9003738,35.4910038,+9611363182,,,,,,,,,,2,30,high,"RTYLR commerce OS (POS, online ordering, CRM)",osm,2026-05-04T13:12:10.490486Z
"Hajj Medical Center-Medical & Dental Clinics Naccache - Dr. Marcel Hajj, Dr. Gregory Hage (Allergy-Diet-Fat Free-Exosome)",medical_center,Mount Lebanon,LB,"Naccache, Green Zone A, bldg, Ground floor, 71, النقاش، Lebanon",33.9285959,35.5966253,+9614520065,,http://linktr.ee/hajj.medical.center,True,,context,+9614520065,,5,162,5,70,high,Digital marketing retainer (Meta + Google + content),google_places|osm,2026-05-04T13:12:10.493892Z
Fidar Beach House,restaurant,Mount Lebanon,LB,,34.0978128,35.6510147,+9619477224,fidar.beach.house@gmail.com,,,,,,,,,2,50,high,"RTYLR commerce OS (POS, online ordering, CRM)",osm,2026-05-04T13:12:10.490486Z
مستوصف ابن نفيس- البسطة,clinic,Beirut,LB,"شارع صالح بن يحي, البسطة الفوقا",33.8858333,35.5043089,+9611664242,ebnnafis.polyclinic@gmail.com,,,,,,,,,3,50,high,Lead-gen website + Google Ads launch,osm,2026-05-04T13:12:10.490486Z
مركز الشهيد كمال جنبلاط للرعاية الصحية الأوليّة,centre,Mount Lebanon,LB,برجا,33.6520149,35.4405591,+9617623129,,,,,,,,,,2,15,low,Full digital launch (brand + website + social setup),osm,2026-05-04T13:12:10.490486Z
جمعية الأمل والعطاء الخيرية,clinic,Mount Lebanon,LB,برجا,33.6388946,35.4276132,+9617921080,amalataa@outlook.com,https://www.amalataa.org/,True,https://www.facebook.com/pg/Amal.Ataa.barja,,,,,,5,60,high,SEO audit + visibility upgrade,osm,2026-05-04T13:12:10.490486Z
Pharmacie Chebbo,pharmacy,Mount Lebanon,LB,برجا,33.6388997,35.4273529,+9617623532,,,,,,,,,,2,23,medium,Full digital launch (brand + website + social setup),osm,2026-05-04T13:12:10.490486Z
مركز كترمايا الصحي,doctors,Mount Lebanon,LB,كترمايا,33.6140957,35.4546778,+9617971984,,,,,,,,,,2,30,high,Lead-gen website + Google Ads launch,osm,2026-05-04T13:12:10.490486Z
مستوصف الدبية الحكومي,clinic,Mount Lebanon,LB,الدبية,33.6699859,35.4855178,+9617985019,,,,,,,,,,2,30,high,Lead-gen website + Google Ads launch,osm,2026-05-04T13:12:10.490486Z
مستوصف عماطور الخيري,clinic,Mount Lebanon,LB,,33.6339235,35.6083179,+9615311237,,,,,,,,,,1,30,high,Lead-gen website + Google Ads launch,osm,2026-05-04T13:12:10.490486Z
أسواق سوبرماركت رمال,supermarket,Beirut,LB,,33.8676088,35.5159935,+9611290101,,,,,,,,,,1,23,medium,"RTYLR commerce OS (POS, online ordering, CRM)",osm,2026-05-04T13:12:10.490486Z
Locanda Corsini,restaurant,Mount Lebanon,LB,,33.9082085,35.6801,+9614982689,,,,,,,,,,1,30,high,"RTYLR commerce OS (POS, online ordering, CRM)",osm,2026-05-04T13:12:10.490486Z
Rouhana Jewelry,jewelry,Mount Lebanon,LB,طريق انطلياس بكفيّا,33.9203196,35.6297594,+9614927055,info@rouhanajewellery.com,https://www.rouhana.co/,False,,,,,,,4,70,high,Website rebuild + maintenance,osm,2026-05-04T13:12:10.490486Z
بإدارة الصيدلية رنا حسن حاوي,pharmacy,South Lebanon,LB,,33.3397471,35.3729737,+9617540423,,,,,,,,,,1,23,medium,Full digital launch (brand + website + social setup),osm,2026-05-04T13:12:10.490486Z
Institute Joujou,beauty,Beirut,LB,,33.8697445,35.5174147,+9611390249,,,,,,,,,,1,30,high,Full digital launch (brand + website + social setup),osm,2026-05-04T13:12:10.490486Z
مؤسسة إلمو,hardware,Beirut,LB,,33.8695314,35.5181833,+9611381767,,,,,,,,,,1,23,medium,Full digital launch (brand + website + social setup),osm,2026-05-04T13:12:10.490486Z
PrintCut,copyshop,Beirut,LB,,33.8695289,35.5192624,+9611281199,sales@printcut.net,https://printcut.net,True,,,,,,,3,45,low,SEO audit + visibility upgrade,osm,2026-05-04T13:12:10.490486Z
فرن مناقيش نيقولا,bakery,Beirut,LB,,33.8703469,35.5171277,+9611385954,,,,,,,,,,1,23,medium,Full digital launch (brand + website + social setup),osm,2026-05-04T13:12:10.490486Z
فرن الوردة البيضاء,bakery,Beirut,LB,,33.8703256,35.5228158,+9611286367,,,,,,,,,,1,23,medium,Full digital launch (brand + website + social setup),osm,2026-05-04T13:12:10.490486Z
زهر الليمون,convenience,Beirut,LB,,33.8940606,35.4925564,+9611355223,,,,,,,,,,1,23,medium,"RTYLR commerce OS (POS, online ordering, CRM)",osm,2026-05-04T13:12:10.490486Z
تعاونية سان تيريز,supermarket,Beirut,LB,,33.8707705,35.5202901,+96112818709611280881,,,,,,,,,,1,23,medium,"RTYLR commerce OS (POS, online ordering, CRM)",osm,2026-05-04T13:12:10.490486Z
Taanayel General Hospital,hospital,Bekaa,LB,,33.7941808,35.8777565,+9618545299,,,,,,,,,,1,23,medium,Full digital launch (brand + website + social setup),osm,2026-05-04T13:12:10.490486Z
Kassab Hospital,hospital,South Lebanon,LB,,33.568745,35.3916326,+96177239009617723700,info@kassabhospital.com,https://kassabhospital.com,True,,,,,,,3,53,medium,SEO audit + visibility upgrade,osm,2026-05-04T13:12:10.490486Z
مستشفى الخير,hospital,North Lebanon,LB,,34.482505,35.9405413,+9616461444,,,,,,,,,,1,23,medium,Full digital launch (brand + website + social setup),osm,2026-05-04T13:12:10.490486Z
مستشفى الحنان,hospital,North Lebanon,LB,,34.4434639,35.8342695,+9616200527,,,,,,,,,,1,23,medium,Full digital launch (brand + website + social setup),osm,2026-05-04T13:12:10.490486Z
Orange Nassau Governmental Hospital,hospital,North Lebanon,LB,,34.4425526,35.8384055,+9616428200,info@ongh.org,,,,,,,,,2,43,medium,Full digital launch (brand + website + social setup),osm,2026-05-04T13:12:10.490486Z
Batrouniyat,restaurant,North Lebanon,LB,Dawra Street,34.2468973,35.661628,+9616744510,info@batrouniyat.org,http://www.batrouniyat.org,True,,batrouniyat,,,,,5,70,high,SEO audit + visibility upgrade,osm,2026-05-04T13:12:10.490486Z
Karantina Governmental Hospital,hospital,Beirut,LB,,33.9025367,35.5299998,+9611442110,,,,https://www.facebook.com/pages/category/Local-Business/Hospital-beirut-governmental-karantina-569737699791591,,,,,,2,23,medium,Website launch + capture their existing audience,osm,2026-05-04T13:12:10.490486Z
Tatari Hospital,hospital,Baalbek-Hermel,LB,,34.0107926,36.2057555,+9618370799,,,,https://www.facebook.com/Top.hospital80,,,,,,2,23,medium,Website launch + capture their existing audience,osm,2026-05-04T13:12:10.490486Z
Medical 2000 Hospital,hospital,Mount Lebanon,LB,,33.8031637,35.5172941,+9615432525,,,,,,,,,,1,23,medium,Full digital launch (brand + website + social setup),osm,2026-05-04T13:12:10.490486Z
4 ways,restaurant,South Lebanon,LB,"toul - dweir main road, nabatieh, toul",33.3846844,35.4442651,+9617765095,,,,,,,,,,2,30,high,"RTYLR commerce OS (POS, online ordering, CRM)",osm,2026-05-04T13:12:10.490486Z
Sushi Lovers,restaurant,Beirut,LB,شارع روزفلت,33.895081,35.4855733,+9611354040,,,,,,,,,,2,30,high,"RTYLR commerce OS (POS, online ordering, CRM)",osm,2026-05-04T13:12:10.490486Z
Anthony's,restaurant,Mount Lebanon,LB,,34.0935965,35.6513067,+9619479189,,,,,,,,,,1,30,high,"RTYLR commerce OS (POS, online ordering, CRM)",osm,2026-05-04T13:12:10.490486Z
Al Halabi,restaurant,Mount Lebanon,LB,طريق ضبية القديم,33.9168444,35.5900819,+9614523555,,,,,,,,,,2,30,high,"RTYLR commerce OS (POS, online ordering, CRM)",osm,2026-05-04T13:12:10.490486Z
Parfumerie Paloma,perfumery,Beirut,LB,"new trad street, برج حموﺪ",33.8895788,35.5421225,+9611249951,,,,,,,,,,2,30,high,Full digital launch (brand + website + social setup),osm,2026-05-04T13:12:10.490486Z
Techpunto IT Solution,service,Beirut,LB,"St Assafir newspaper bldg. 3rd floor، Amin Mneimneh, Bayrut, Lebanon",33.893594799999995,35.4848652,+9611743396,info@techpunto.com,https://www.techpunto.com/,False,,,,,4.6,9,4,60,low,Website rebuild + maintenance,google_places|osm,2026-05-04T13:12:10.493892Z
ماركت شادي مسيح,supermarket,North Lebanon,LB,,34.3586111,35.7328103,+9616543886,,,,,,,,,,1,23,medium,"RTYLR commerce OS (POS, online ordering, CRM)",osm,2026-05-04T13:12:10.490486Z
عيادة الدكتور بو حبيب,clinic,Mount Lebanon,LB,شارع 12,33.9114217,35.5842732,+9614416979,neurologist@inbox.com,http://www.bouhabib.narod.ru/,True,https://www.facebook.com/bouhabibclinic/,,,,,,5,60,high,SEO audit + visibility upgrade,osm,2026-05-04T13:12:10.490486Z
The Parisian Hotel,hotel,Beirut,LB,,33.9000978,35.4919177,+9611361999,info@theparisianhotel.com,https://www.theparisianhotel.com,True,,theparisianhotel,,https://linkedin.com/company/the-parisian-hotel,,,5,70,high,SEO audit + visibility upgrade,osm,2026-05-04T13:12:10.490486Z
Mum & I,restaurant,Beirut,LB,,33.8783448,35.5159861,+9611425650,,,,https://www.facebook.com/MumAndI,,,,,,2,30,high,Website launch + capture their existing audience,osm,2026-05-04T13:12:10.490486Z
Café عصير صقر,cafe,Beirut,LB,"شارع بشارة الخوري, بيروت",33.8850311,35.506964,+9611632010,,,,,,,,,,2,30,high,"RTYLR commerce OS (POS, online ordering, CRM)",osm,2026-05-04T13:12:10.490486Z
Sushi Star,restaurant,Mount Lebanon,LB,,33.8594178,35.558779,+9611683689,,,,,,,,,,1,30,high,"RTYLR commerce OS (POS, online ordering, CRM)",osm,2026-05-04T13:12:10.490486Z
future - المستقبل,supermarket,Mount Lebanon,LB,,33.7840271,35.5561433,+9615273558,,,,,,,,,,1,23,medium,"RTYLR commerce OS (POS, online ordering, CRM)",osm,2026-05-04T13:12:10.490486Z
19 Restaurant,restaurant,Mount Lebanon,LB,,33.7845928,35.4764504,+9615807800,,,,,,,,,,1,30,high,"RTYLR commerce OS (POS, online ordering, CRM)",osm,2026-05-04T13:12:10.490486Z
The J Hotel & Spa,hotel,Beirut,LB,,33.8955401,35.4812196,+9611344626,,,,,,,,,,1,30,high,"RTYLR commerce OS (POS, online ordering, CRM)",osm,2026-05-04T13:12:10.490486Z
Monte Cassino,hotel,Mount Lebanon,LB,"Casino Du Liban Street Jounieh، 2J7Q+JHR, Kfar Yassine, Lebanon",34.0140485,35.638965899999995,+9619852600,,,,,,,,4.5,179,2,35,high,"RTYLR commerce OS (POS, online ordering, CRM)",google_places|osm,2026-05-04T13:12:10.493892Z
Le Montagnou,restaurant,Bekaa,LB,,33.9936095,35.831913,+9619341441,,http://www.montagnou.com/,False,https://www.facebook.com/LeMontagnou/,,,,,,3,50,high,Website rebuild + maintenance,osm,2026-05-04T13:12:10.490486Z
Librairie Antoine Hamra,books,Beirut,LB,,33.8955567,35.4821392,+9611341470,,https://www.antoineonline.com/,False,,,,,,,2,43,medium,Website rebuild + maintenance,osm,2026-05-04T13:12:10.490486Z
Ka3kaya,restaurant,Beirut,LB,,33.8962349,35.4820078,+9611354555,,https://www.ka3kaya.com/,True,,nas_code,,,,,3,50,high,SEO audit + visibility upgrade,osm,2026-05-04T13:12:10.490486Z
Al Irfan Hospital,hospital,Mount Lebanon,LB,,33.6752712,35.5922749,+9615501678,,,,,,,,,,1,23,medium,Full digital launch (brand + website + social setup),osm,2026-05-04T13:12:10.490486Z
الجمية اللبنانية لرعاية المعوقين,clinic,South Lebanon,LB,,33.4327742,35.3092739,+9617441010,lwah@lwah.org.lb,,,,,,,,,2,50,high,Lead-gen website + Google Ads launch,osm,2026-05-04T13:12:10.490486Z
فندق البحار,hotel,Mount Lebanon,LB,,34.0290095,35.6257321,+9619855858,,,,,,,,,,1,30,high,"RTYLR commerce OS (POS, online ordering, CRM)",osm,2026-05-04T13:12:10.490486Z
Joy Venue,events_venue,Mount Lebanon,LB,,34.097262,35.6547602,+9619479498,,,,,https://www.instagram.com/joyvenue/,,,,,2,33,medium,Website launch + capture their existing audience,osm,2026-05-04T13:12:10.490486Z
Chateau Muzar,wine,Mount Lebanon,LB,,34.0163495,35.6699185,+9619925127,,https://www.chateaumusar.com/,False,,,,,,,2,43,medium,Website rebuild + maintenance,osm,2026-05-04T13:12:10.490486Z
Gelato Show,ice_cream,Mount Lebanon,LB,,33.9887408,35.6413694,+9619642250,,,,,,,,,,1,30,high,"RTYLR commerce OS (POS, online ordering, CRM)",osm,2026-05-04T13:12:10.490486Z
جمعية امبرايس,clinic,Beirut,LB,شارع ربيز,33.8960082,35.4852403,+9611341941,,,,,,,,,,2,30,high,Lead-gen website + Google Ads launch,osm,2026-05-04T13:12:10.490486Z
Al Hamshari Hospital,hospital,South Lebanon,LB,,33.5476708,35.3862615,+9617724881,,,,,,,,,,1,23,medium,Full digital launch (brand + website + social setup),osm,2026-05-04T13:12:10.490486Z
Pepe Fishermans Club,restaurant,North Lebanon,LB,,34.1216154,35.6440741,+9619540213,,,,,,,,,,1,30,high,"RTYLR commerce OS (POS, online ordering, CRM)",osm,2026-05-04T13:12:10.490486Z
Nahr Al Janna,hotel,Mount Lebanon,LB,,33.9459815,35.6152664,+9614930200,,,,,,,,,,1,30,high,"RTYLR commerce OS (POS, online ordering, CRM)",osm,2026-05-04T13:12:10.490486Z
Hôpital Haroun,hospital,Mount Lebanon,LB,,33.9006645,35.5717805,+96118973009611897301961189730296118973039611897304,,,,https://m.facebook.com/profile.php?id=376596812392902,,,,,,2,23,medium,Website launch + capture their existing audience,osm,2026-05-04T13:12:10.490486Z
Loris,restaurant,Beirut,LB,شارع باستور,33.8959295,35.5158789,+9611567568,,https://www.loris.restaurant/,False,https://m.facebook.com/Loris.Restaurant/,,,,,,4,50,high,Website rebuild + maintenance,osm,2026-05-04T13:12:10.490486Z
Al Hayat Hospital,hospital,Beirut,LB,"Al Hayat Hospital Street, Lebanon",33.8578028,35.5252089,+9611546200,,https://www.alhayat-hospital.com/,False,https://www.facebook.com/AL-Hayat-Hospital-557872267703366/,,,,3.8,47,4,58,medium,Website rebuild + maintenance,google_places|osm,2026-05-04T13:12:10.493892Z
Dr. Haitham AlFakih Dental Clinic,dentist,Mount Lebanon,LB,,33.8121453,35.6091416,+9615551725,drfakih@hotmail.com,,,,,,,,,2,50,high,Lead-gen website + Google Ads launch,osm,2026-05-04T13:12:10.490486Z
فندق باي ان,hotel,Mount Lebanon,LB,طريق البحر,34.0069342,35.6467006,+9619854212,,,,,,,,,,2,30,high,"RTYLR commerce OS (POS, online ordering, CRM)",osm,2026-05-04T13:12:10.490486Z
Clinique AS Ahdab,clinic,North Lebanon,LB,,34.4405531,35.8352231,+9616441442,,,,,,,,,,1,30,high,Lead-gen website + Google Ads launch,osm,2026-05-04T13:12:10.490486Z
Cedarland Hotel,hotel,Beirut,LB,,33.8973084,35.4839301,+96113402339611340234,,,,,,,,,,1,30,high,"RTYLR commerce OS (POS, online ordering, CRM)",osm,2026-05-04T13:12:10.490486Z
Mashhour,restaurant,Bekaa,LB,,33.5217675,35.8265924,+9618590199,,,,,,,,,,1,30,high,"RTYLR commerce OS (POS, online ordering, CRM)",osm,2026-05-04T13:12:10.490486Z
Empire Entertainment,company,Beirut,LB,"طريق الشام, بيروت",33.8862577,35.508953,+9611616600,,https://www.empiremena.com/,True,,,,,,,3,25,low,SEO audit + visibility upgrade,osm,2026-05-04T13:12:10.490486Z
SHOO clean,laundry,Mount Lebanon,LB,,33.9256613,35.6366255,+9614910647,,,,,,,,,,1,23,medium,Full digital launch (brand + website + social setup),osm,2026-05-04T13:12:10.490486Z
رصيف بيروت,restaurant,Beirut,LB,"شارع جبر ضومط, بيروت",33.8973745,35.480822,+9611340081,,,,,,,,,,2,30,high,"RTYLR commerce OS (POS, online ordering, CRM)",osm,2026-05-04T13:12:10.490486Z
Restaurant Ya Hala,fast_food,Akkar,LB,,34.393133,36.3852545,+9618200375,,,,,,,,,,1,30,high,"RTYLR commerce OS (POS, online ordering, CRM)",osm,2026-05-04T13:12:10.490486Z
Ni,restaurant,Mount Lebanon,LB,,33.9268789,35.5878772,+9614520772,,,,,,,,,,1,30,high,"RTYLR commerce OS (POS, online ordering, CRM)",osm,2026-05-04T13:12:10.490486Z
وسليز,general,Mount Lebanon,LB,,33.9068878,35.5799338,+9614714094,,,,,,,,,,1,23,medium,Full digital launch (brand + website + social setup),osm,2026-05-04T13:12:10.490486Z
Tawlet Beit El Qamar,restaurant,Mount Lebanon,LB,,33.7048273,35.5779384,+9615511722,info@beitelqamar.com,,,,,,,,,2,50,high,"RTYLR commerce OS (POS, online ordering, CRM)",osm,2026-05-04T13:12:10.490486Z
Hotel Le Noble,hotel,Mount Lebanon,LB,,33.946732,35.5979426,+9614542750,,https://hotellenoble.com/,False,,,,,,,2,50,high,Website rebuild + maintenance,osm,2026-05-04T13:12:10.490486Z
BHive Café,coffee_shop,Beirut,LB,"Mahatma Ghandi, Hamra 1103, Lebanon",33.895172599999995,35.4779702,+9611355351,contact@thebhive.io,http://www.thebhive.io/,True,,100,,,4.4,529,5,75,high,"RTYLR commerce OS (POS, online ordering, CRM)",google_places|osm,2026-05-04T13:12:10.493892Z
مطعم البندقية الإيطالي,restaurant,Beirut,LB,"شارع 8-05, بيروت",33.8713028,35.5359178,+9611516540,,,,https://www.facebook.com/VeneziaRistoranteItaliano,https://www.instagram.com/veneziaristoranteitaliano/,,,,,3,40,high,Website launch + capture their existing audience,osm,2026-05-04T13:12:10.490486Z
Aphrodite Hotel,hotel,Mount Lebanon,LB,,34.018783,35.6315951,+9619850400,,,,https://www.facebook.com/aphrodite1.hotel/,,,,,,2,30,high,Website launch + capture their existing audience,osm,2026-05-04T13:12:10.490486Z
Romance Hotel,hotel,Mount Lebanon,LB,,34.0194722,35.6318405,+9619855258,,,,,https://www.instagram.com/romancehotellb/,,,,,2,40,high,Website launch + capture their existing audience,osm,2026-05-04T13:12:10.490486Z
Grand Gabriel Hotel,hotel,Mount Lebanon,LB,,33.9663436,35.6094226,+9619215222,,,,,,,,,,1,30,high,"RTYLR commerce OS (POS, online ordering, CRM)",osm,2026-05-04T13:12:10.490486Z
Ana Beirut,restaurant,Mount Lebanon,LB,,33.9186162,35.586471,+9614520280,,,,,,,,,,1,30,high,"RTYLR commerce OS (POS, online ordering, CRM)",osm,2026-05-04T13:12:10.490486Z
Le Cerfvolant Beach Restaurant,restaurant,Mount Lebanon,LB,,34.0590867,35.6428933,+96129445679,,,,,,,,,,1,30,high,"RTYLR commerce OS (POS, online ordering, CRM)",osm,2026-05-04T13:12:10.490486Z
AM Bank,bank,Mount Lebanon,LB,,33.9172084,35.5843654,+9614444590,,,,,,,,,,1,23,medium,Full digital launch (brand + website + social setup),osm,2026-05-04T13:12:10.490486Z
Wunderman Thompson,company,Beirut,LB,"47, شارع البطريرك حويك, بيروت",33.8990195,35.5028618,+9611973030,,https://www.wundermanthompson.com/,True,,,,,,,3,25,low,SEO audit + visibility upgrade,osm,2026-05-04T13:12:10.490486Z
Garage Riad El Hayek,car_repair,Mount Lebanon,LB,"Aboujaoude industrial center, Naher El Mot",33.8934328,35.5756791,+9611890661,,https://garageriadhayek.wordpress.com/,True,,supports,,,,,4,43,medium,SEO audit + visibility upgrade,osm,2026-05-04T13:12:10.490486Z
Billy Boyz,restaurant,Mount Lebanon,LB,,33.9558487,35.6107372,+9619222062,,,,,,,,,,1,30,high,"RTYLR commerce OS (POS, online ordering, CRM)",osm,2026-05-04T13:12:10.490486Z
iSTYLE,computer,Beirut,LB,,33.8614187,35.5292788,+9611283989,,,,,,,,,,1,30,high,Full digital launch (brand + website + social setup),osm,2026-05-04T13:12:10.490486Z
Patchi,chocolate,Mount Lebanon,LB,,34.0122961,35.6483938,+9619855925,,,,,,,,,,1,23,medium,Full digital launch (brand + website + social setup),osm,2026-05-04T13:12:10.490486Z
Sinno Trading Co SAL,hardware,Beirut,LB,,33.8665744,35.4882994,+9611821821,,,,,,,,,,1,23,medium,Full digital launch (brand + website + social setup),osm,2026-05-04T13:12:10.490486Z
لا بلازير - حلويات,confectionery,Mount Lebanon,LB,Saqiet El-Misk - Bikfaya - Rue Principale,33.9185313,35.6771851,+9614981423,,,,,,,,,,2,23,medium,Full digital launch (brand + website + social setup),osm,2026-05-04T13:12:10.490486Z
Das Küche,restaurant,Beirut,LB,,33.8971117,35.5245777,+9611442887,info@daskuche.com,https://daskuche.me/,True,,daskuche,,,,,4,70,high,SEO audit + visibility upgrade,osm,2026-05-04T13:12:10.490486Z
Delight,restaurant,Mount Lebanon,LB,Qalaa,33.8382953,35.7333625,+9615530577,,https://pizzadelight-hammana.business.site/?utm_source=gmb&utm_medium=referral,True,,,,,,,3,40,high,SEO audit + visibility upgrade,osm,2026-05-04T13:12:10.490486Z
Pertutti,restaurant,Mount Lebanon,LB,,33.853203,35.5452282,+9615457000,,,,,,,,,,1,30,high,"RTYLR commerce OS (POS, online ordering, CRM)",osm,2026-05-04T13:12:10.490486Z
Owap association,company,North Lebanon,LB,,34.4548322,35.8111426,+9616426997,owap10452@gmail.com,,,,,,,,,2,35,low,Full digital launch (brand + website + social setup),osm,2026-05-04T13:12:10.490486Z
Mr. International,restaurant,Beirut,LB,,33.8747538,35.5395521,+9611488381,,,,,,,,,,1,30,high,"RTYLR commerce OS (POS, online ordering, CRM)",osm,2026-05-04T13:12:10.490486Z
Pet Palace,pet_grooming,Beirut,LB,شارع جورج حداد,33.8927332,35.5099196,+9611218245,,,,,,,,,,2,23,medium,Full digital launch (brand + website + social setup),osm,2026-05-04T13:12:10.490486Z
EcoConsulting,company,Beirut,LB,شارع جورج حداد,33.8937446,35.509428,+9611971266,info@ecoconsulting.net,http://ecoconsulting.net,True,The-Circular-Hub-112887496744002,thecircularhub,,,,,5,55,low,SEO audit + visibility upgrade,osm,2026-05-04T13:12:10.490486Z
Globecast Near & Middle East,company,Beirut,LB,,33.8765011,35.5174846,+9611395111,,https://www.globecast.com/,True,,globecast,,https://linkedin.com/company/globecast,,,4,35,low,SEO audit + visibility upgrade,osm,2026-05-04T13:12:10.490486Z
عمر الفحل,doityourself,Beirut,LB,Rue Imam Moussa Sader,33.8599721,35.4865854,+9611852134,,,,,,,,,,2,23,medium,Full digital launch (brand + website + social setup),osm,2026-05-04T13:12:10.490486Z
Siège social SIDC,community_centre,Beirut,LB,Street 5,33.8761301,35.534709,+9611482428,info@sidc-lebanon.org,https://sidc-lebanon.org/,True,,context,,,,,5,55,low,SEO audit + visibility upgrade,osm,2026-05-04T13:12:10.490486Z
Colortek Paints & Wallpapers,interior_decoration,Mount Lebanon,LB,شارع حنكاش الجديد,33.89225,35.5573581,+9611242812,,https://www.colortek.eu/,True,,nas_code,,https://linkedin.com/company/colortek-a-division-of-kassaa-group,,,5,43,medium,SEO audit + visibility upgrade,osm,2026-05-04T13:12:10.490486Z
EDCOLebanon s.a.r.l,company,Mount Lebanon,LB,Antelias,33.9185042,35.5895386,+9614521481,,,,,,,,,,2,15,low,Full digital launch (brand + website + social setup),osm,2026-05-04T13:12:10.490486Z
Tecfrac,corporate_office,Beirut,LB,"VFPH+Q47, Beirut, Lebanon",33.8869007,35.4778016,+9611788999,,http://www.tecfrac.com/,True,,,,,4.7,3,3,30,low,SEO audit + visibility upgrade,google_places|osm,2026-05-04T13:12:10.493892Z
The Bros,fast_food,Beirut,LB,شارع أرمينيا,33.8972754,35.5271384,+9611570297,,,,thebroslb,,,,,,3,30,high,Website launch + capture their existing audience,osm,2026-05-04T13:12:10.490486Z
صيدلية سان جورج,pharmacy,Beirut,LB,شارع مستشفى الروم,33.8945438,35.5247962,+9611582997,,,,,,,,,,2,23,medium,Full digital launch (brand + website + social setup),osm,2026-05-04T13:12:10.490486Z
Nextcare,insurance,Beirut,LB,,33.8807239,35.5386498,+9611504000,lebanon@nextcarehealth.com,https://www.nextcarehealth.com,True,,nextcarehealth,,https://linkedin.com/company/nextcare,,,5,63,medium,SEO audit + visibility upgrade,osm,2026-05-04T13:12:10.490486Z
Seven Moons School,school,Mount Lebanon,LB,,33.843026,35.5096797,+9611474662,,,,,,,,,,1,23,medium,Full digital launch (brand + website + social setup),osm,2026-05-04T13:12:10.490486Z
Albayan High School,school,Mount Lebanon,LB,,33.8446614,35.5173118,+9611472158,,,,,,,,,,1,23,medium,Full digital launch (brand + website + social setup),osm,2026-05-04T13:12:10.490486Z
مشاويش,restaurant,Beirut,LB,شارع ألكسندر فليمنغ,33.8974146,35.5250774,+9611449390,,,,,mashawish.grill,,,,,3,40,high,Website launch + capture their existing audience,osm,2026-05-04T13:12:10.490486Z
Frunch Eatery - Mar Mikhael,fast_food,Beirut,LB,شارع أرمينيا,33.8974472,35.5270752,+9611403303,,http://frunch-eatery.com,True,,media,,,,,4,50,high,SEO audit + visibility upgrade,osm,2026-05-04T13:12:10.490486Z
Upper Room,restaurant,Mount Lebanon,LB,طريق انطلياس بكفيّا,33.9156251,35.591961,+9613110200,,,,upperroomleb,upperroomlrbanon,,,,,3,40,high,Website launch + capture their existing audience,osm,2026-05-04T13:12:10.490486Z
Keys'n Chords Music Academy,musical_instrument,Beirut,LB,شارع تامر ملاط,33.8848372,35.4853828,+9611795914,,https://keysncords.com,True,,import,,,,,4,43,medium,SEO audit + visibility upgrade,osm,2026-05-04T13:12:10.490486Z
صيدلية شعار,pharmacy,Beirut,LB,شارع بشارة الخوري,33.8858922,35.506538,+9611663221,,,,,,,,,,2,23,medium,Full digital launch (brand + website + social setup),osm,2026-05-04T13:12:10.490486Z
Brush Art Paints,doityourself,Beirut,LB,شارع دار الفتوى,33.8848323,35.4902253,+9611706773,,https://www.brushart.co/,False,,,,,,,3,43,medium,Website rebuild + maintenance,osm,2026-05-04T13:12:10.490486Z
Tony,restaurant,Mount Lebanon,LB,,33.9128717,35.6770346,+9614985959,,,,,,,,,,1,30,high,"RTYLR commerce OS (POS, online ordering, CRM)",osm,2026-05-04T13:12:10.490486Z
فرن صفوان الأصلي,bakery,Beirut,LB,طريق السريع بيروت-صيدا,33.8459623,35.4852017,+9611450143,,,,,,,,,,2,23,medium,Full digital launch (brand + website + social setup),osm,2026-05-04T13:12:10.490486Z
Chez Angelo,restaurant,Beirut,LB,,33.8892169,35.517097,+9611587550,,,,,,,,,,1,30,high,"RTYLR commerce OS (POS, online ordering, CRM)",osm,2026-05-04T13:12:10.490486Z
بوتيك متحف الصابون في صيدا,gift,Beirut,LB,,33.892583,35.5171468,+9613887688,,https://sidonia.shop/,False,,,,,,,2,43,medium,Website rebuild + maintenance,osm,2026-05-04T13:12:10.490486Z
Cafe Younes,coffee_shop,Beirut,LB,"VFVH+WPP, Baalbak, Bayrut, Lebanon",33.8948427,35.4793224,+9611750975,info@cafeyounes.com,http://www.cafeyounes.com/,True,,context,,https://linkedin.com/company/cafe-younes,4.4,896,6,75,high,"RTYLR commerce OS (POS, online ordering, CRM)",google_places|osm,2026-05-04T13:12:10.493892Z
Allcare Pharmacy,pharmacy,Mount Lebanon,LB,,33.8519173,35.5487747,+9615457037,,,,,,,,,,1,23,medium,Full digital launch (brand + website + social setup),osm,2026-05-04T13:12:10.490486Z
FS Office Supplies,electronics,Mount Lebanon,LB,,33.8523178,35.5489502,+9615950180,,https://www.fsofficesupplies.net/,True,,,,,,,2,33,medium,SEO audit + visibility upgrade,osm,2026-05-04T13:12:10.490486Z
ATLAI,gift,Mount Lebanon,LB,,33.8519402,35.5466003,+9615951172,,https://www.altailebanon.com/,True,,,,,,,2,33,medium,SEO audit + visibility upgrade,osm,2026-05-04T13:12:10.490486Z
الحويك,doityourself,Mount Lebanon,LB,Rue Ste. Mere Teresa,33.8886998,35.5547164,+9611880271,info@howayek.con,https://howayek.com,True,,,,,,,4,53,medium,SEO audit + visibility upgrade,osm,2026-05-04T13:12:10.490486Z
Chez Gio Gio,restaurant,Bekaa,LB,Zahlé,33.8398512,35.9143537,+9618822884,,,,https://www.facebook.com/chezgio/,https://www.instagram.com/chezgiogio/,,,,,3,40,high,Website launch + capture their existing audience,osm,2026-05-04T13:12:10.490486Z
Uniun,restaurant,Beirut,LB,,33.8987,35.4837859,+9611444514,,,,,,,,,,1,30,high,"RTYLR commerce OS (POS, online ordering, CRM)",osm,2026-05-04T13:12:10.490486Z
The HealthQuarters,clinic,Beirut,LB,شارع محمد بيضون,33.8854537,35.5113041,+9611425182,,http://www.thehealthquarters.co/,True,,,,,,,3,40,high,SEO audit + visibility upgrade,osm,2026-05-04T13:12:10.490486Z
La Soltech,doityourself,Beirut,LB,شارع برج أبي حيدر,33.8828152,35.4985628,+9611706310,,,,,,,,,,2,23,medium,Full digital launch (brand + website + social setup),osm,2026-05-04T13:12:10.490486Z
ملحمة الحاج عوني لبدة وأولاده,restaurant,North Lebanon,LB,الميناء,34.4514979,35.8165592,+9616601925,,,,,,,,,,2,30,high,"RTYLR commerce OS (POS, online ordering, CRM)",osm,2026-05-04T13:12:10.490486Z
حلويات الجبّة,confectionery,Baalbek-Hermel,LB,,34.0061034,36.2081608,+9618373824,,,,aljebbeh,,,,,,2,23,medium,E-commerce launch + Instagram-to-store funnel,osm,2026-05-04T13:12:10.490486Z
Seray,restaurant,Beirut,LB,,33.8988683,35.5006813,+9611995511,,,,,,,,,,1,30,high,"RTYLR commerce OS (POS, online ordering, CRM)",osm,2026-05-04T13:12:10.490486Z
أفران الزمار,bakery,Bekaa,LB,Route Vallée Ferzol,33.8625579,35.9518654,+9618951222,,,,,,,,,,2,23,medium,Full digital launch (brand + website + social setup),osm,2026-05-04T13:12:10.490486Z
صيدلية الربيع,pharmacy,Bekaa,LB,الغربي,33.891753,35.9875673,+9618910818,,,,,,,,,,2,23,medium,Full digital launch (brand + website + social setup),osm,2026-05-04T13:12:10.490486Z
Chococrepe,confectionery,Bekaa,LB,Route Vallée Ferzol,33.8670264,35.9571511,+9618951722,,,,,,,,,,2,23,medium,Full digital launch (brand + website + social setup),osm,2026-05-04T13:12:10.490486Z
New foodies,supermarket,Bekaa,LB,"Ferzol, Lebanon",33.8577862,35.943011299999995,+9618951379,,,,,,,,4.3,307,2,28,medium,"RTYLR commerce OS (POS, online ordering, CRM)",google_places|osm,2026-05-04T13:12:10.493892Z
سوبرماركت البركة,supermarket,Bekaa,LB,الغربي,33.8918749,35.987577,+9618913217,,,,,,,,,,2,23,medium,"RTYLR commerce OS (POS, online ordering, CRM)",osm,2026-05-04T13:12:10.490486Z
مطبعة الصوفي,copyshop,North Lebanon,LB,شارع رياض الصلح,34.4369456,35.8343355,+9616439144,,,,,,,,,,2,15,low,Full digital launch (brand + website + social setup),osm,2026-05-04T13:12:10.490486Z
Mamounia,restaurant,Mount Lebanon,LB,,33.8997276,35.5733992,+9611888326,,,,,,,,,,1,30,high,"RTYLR commerce OS (POS, online ordering, CRM)",osm,2026-05-04T13:12:10.490486Z
Deek'Matic,restaurant,Mount Lebanon,LB,"Main road, Qornet Chehwen",33.9208523,35.6337942,+9614922161,,https://menu.omegasoftware.ca/deekmatic,True,,keyframes,,,,,4,50,high,SEO audit + visibility upgrade,osm,2026-05-04T13:12:10.490486Z
Elma Wedding Cars,car_rental,Mount Lebanon,LB,,33.9200322,35.6462608,+9614927225,,,,,,,,,,1,23,medium,Full digital launch (brand + website + social setup),osm,2026-05-04T13:12:10.490486Z
Al NAHR RESTAURANT,restaurant,Bekaa,LB,Al nahr، Lebanon,33.9631411,35.779325299999996,+9614288197,,,,,,,,4.4,397,2,35,high,"RTYLR commerce OS (POS, online ordering, CRM)",google_places|osm,2026-05-04T13:12:10.493892Z
ملتقى السفير,cafe,Beirut,LB,,33.893587,35.4850665,+96181857880,,,,,multaqa.beirut,,,,,2,40,high,Website launch + capture their existing audience,osm,2026-05-04T13:12:10.490486Z
ماركت أنثني,convenience,Bekaa,LB,,33.8544401,35.8949839,+9618800383,,,,,,,,,,1,23,medium,"RTYLR commerce OS (POS, online ordering, CRM)",osm,2026-05-04T13:12:10.490486Z
Kassab Resto & Butchery,restaurant,Beirut,LB,طريق دمشق,33.8540615,35.520703,+9611278222,,,,,,,,,,2,30,high,"RTYLR commerce OS (POS, online ordering, CRM)",osm,2026-05-04T13:12:10.490486Z
بارون شانت,restaurant,Mount Lebanon,LB,أتستراد البحر,33.7845609,35.4765459,+961580780396171119934,,,,,,,,,,2,30,high,"RTYLR commerce OS (POS, online ordering, CRM)",osm,2026-05-04T13:12:10.490486Z
Fakhani Fresh,supermarket,South Lebanon,LB,طريق صيدا القديمة,33.7981973,35.4856399,+9615803111,,,,,,,,,,2,23,medium,"RTYLR commerce OS (POS, online ordering, CRM)",osm,2026-05-04T13:12:10.490486Z
