name,category,region,country,address,lat,lon,phone,email,website,website_live,facebook,instagram,rating,review_count,completeness_score,industry_priority,recommended_service,source,scraped_at
Fahed Supermarket - Jounieh,supermarket,Mount Lebanon,LB,"La Cite، Jounieh, Lebanon",33.984955299999996,35.6348312,09 934 433,,,,,,3.9,883,2,medium,"RTYLR commerce OS (POS, online ordering, CRM)",google_places|osm,2026-05-04T11:47:22.394171Z
Hopital des Soeurs du Rosaire,hospital,Beirut,LB,"VGW8+837, Beirut, Lebanon",33.8957958,35.5151822,01 440 800,info@hopitalrosaire.org,http://www.hopitalrosaire.org/,True,,,4.2,56,4,medium,Discovery call - scope the right service,google_places|osm,2026-05-04T11:47:22.394171Z
مستشفى الإقليم المركزي,hospital,Mount Lebanon,LB,,33.6139536,35.4721675,+9617970777,,,,,,,,1,medium,Full digital launch (brand + website + social setup),osm,2026-05-04T11:47:22.388875Z
روسّا كافيه,cafe,Beirut,LB,,33.8952284,35.484735,+961 1 343 339,,,,,,,,1,high,"RTYLR commerce OS (POS, online ordering, CRM)",osm,2026-05-04T11:47:22.388875Z
ستاربكس,cafe,Beirut,LB,,33.8956032,35.4830661,+9611744305,,https://www.starbucks.com/,True,,,,,2,high,SEO audit + visibility upgrade,osm,2026-05-04T11:47:22.388875Z
صيدلية قاروط,pharmacy,Beirut,LB,,33.875686,35.4974978,+9611306099,,,,,,,,1,medium,Full digital launch (brand + website + social setup),osm,2026-05-04T11:47:22.388875Z
حنيني,pharmacy,Beirut,LB,بيروت,33.8736312,35.5000326,+9611819110,,,,,,,,2,medium,Full digital launch (brand + website + social setup),osm,2026-05-04T11:47:22.388875Z
مطعم الشمس,restaurant,Bekaa,LB,"Anjar Main Road, Anjar",33.7293791,35.9272457,+9618620568,,,,,,,,2,high,"RTYLR commerce OS (POS, online ordering, CRM)",osm,2026-05-04T11:47:22.388875Z
عبدالرحمان الحلاب,bakery,North Lebanon,LB,Tripoli,34.4374808,35.8336931,+9616444445,,https://www.hallab.com.lb/,True,,,,,3,medium,SEO audit + visibility upgrade,osm,2026-05-04T11:47:22.388875Z
أوتيل ماربل تاور,hotel,Beirut,LB,شارع نعمة يافت,33.8966863,35.4802065,+9611354586,info@marbletowerhotel.com,http://www.marbletowerhotel.com,True,,,,,4,high,SEO audit + visibility upgrade,osm,2026-05-04T11:47:22.388875Z
Nini Hospital,hospital,North Lebanon,LB,"El Maarad, Tarablus, Lebanon",34.4355717,35.8305106,06 431 400,,http://hopitalnini.com/,True,,,3.3,118,3,medium,Reputation + SEO turnaround,google_places|osm,2026-05-04T11:47:22.394171Z
أفران شمسين,bakery,Mount Lebanon,LB,طريق البحر السريع,33.7765746,35.4716779,+9615800658,,http://www.chamsine.net,True,,,,,3,medium,SEO audit + visibility upgrade,osm,2026-05-04T11:47:22.388875Z
Aida Pharmacy,pharmacy,Mount Lebanon,LB,Debbiyeh,33.6828717,35.4748587,+9617985662,,,,,,,,2,medium,Full digital launch (brand + website + social setup),osm,2026-05-04T11:47:22.388875Z
صيدلية الوردية,pharmacy,Mount Lebanon,LB,,33.8005793,35.4861194,+9615806608,,,,,,,,1,medium,Full digital launch (brand + website + social setup),osm,2026-05-04T11:47:22.388875Z
باب الميناء,restaurant,North Lebanon,LB,,34.1218287,35.6439216,+9619540475,,,,,,,,1,high,"RTYLR commerce OS (POS, online ordering, CRM)",osm,2026-05-04T11:47:22.388875Z
Saydet Zgharta Hospital,hospital,North Lebanon,LB,زغرتا,34.3996522,35.8856898,+9616660575,,http://www.ehdenz.com,True,,,,,3,medium,SEO audit + visibility upgrade,osm,2026-05-04T11:47:22.388875Z
أوتيل بيفيو,hotel,Beirut,LB,,33.9015855,35.4910599,+9611373090,,,,,,,,1,high,"RTYLR commerce OS (POS, online ordering, CRM)",osm,2026-05-04T11:47:22.388875Z
Byblos Comfort Hotel,hotel,North Lebanon,LB,جبيل,34.123963,35.6481661,+9619942200,info@bybloscomforthotel.com,,,,,,,3,high,"RTYLR commerce OS (POS, online ordering, CRM)",osm,2026-05-04T11:47:22.388875Z
حاج سوبرستور,supermarket,North Lebanon,LB,,34.1205801,35.6509154,+9619546000,,,,,,,,1,medium,"RTYLR commerce OS (POS, online ordering, CRM)",osm,2026-05-04T11:47:22.388875Z
نزل مار ميخائيل,hostel,Mount Lebanon,LB,معاصر الشوف,33.6671352,35.6716396,+961 5 350451;+961 5 350452,,,,,,,,2,high,Full digital launch (brand + website + social setup),osm,2026-05-04T11:47:22.388875Z
فندق الباروك بالاس,hotel,Mount Lebanon,LB,,33.7123376,35.6902985,+961 5 240251,,,,,,,,1,high,"RTYLR commerce OS (POS, online ordering, CRM)",osm,2026-05-04T11:47:22.388875Z
فندق إيريس فلور,hotel,South Lebanon,LB,Jezzine,33.5407869,35.5846962,+961 7 781999,,,,,,,,2,high,"RTYLR commerce OS (POS, online ordering, CRM)",osm,2026-05-04T11:47:22.388875Z
الرامي,restaurant,Mount Lebanon,LB,,33.8361609,35.7396675,+961 5 531694,,,,,,,,1,high,"RTYLR commerce OS (POS, online ordering, CRM)",osm,2026-05-04T11:47:22.388875Z
مطعم أبو نعيم,restaurant,Beirut,LB,"12, شارع عمر بن عبد العزيز, بيروت",33.8952358,35.4834994,+9611750480,,https://www.facebook.com/AbuNaimHamra,True,,,,,3,high,SEO audit + visibility upgrade,osm,2026-05-04T11:47:22.388875Z
Sabis Adma,school,Mount Lebanon,LB,,34.0234982,35.6378846,+9619854154,,,,,,,,1,medium,Full digital launch (brand + website + social setup),osm,2026-05-04T11:47:22.388875Z
Tavolina,restaurant,Beirut,LB,,33.8971463,35.5243323,+961 1 442 244,,,,,,,,1,high,"RTYLR commerce OS (POS, online ordering, CRM)",osm,2026-05-04T11:47:22.388875Z
ماكدونالدز,fast_food,Mount Lebanon,LB,,33.9105469,35.5829256,+9614521349,,,,,,,,1,high,"RTYLR commerce OS (POS, online ordering, CRM)",osm,2026-05-04T11:47:22.388875Z
ستاربكس,cafe,Mount Lebanon,LB,,33.9005689,35.572722,+961 1 757 154,,https://locations.starbucks.com.lb/directory/mount-lebanon/zalka-road-zalka,True,,,,,2,high,SEO audit + visibility upgrade,osm,2026-05-04T11:47:22.388875Z
Wooden Bakery,bakery,Mount Lebanon,LB,,33.8542707,35.569453,+9614532666,,,,,,,,1,medium,Full digital launch (brand + website + social setup),osm,2026-05-04T11:47:22.388875Z
سي اسويت,confectionery,Beirut,LB,Rue de Damas,33.8675065,35.5271053,+9611292444,,http://www.lebanon.com/seasweet/,True,,,,,3,medium,SEO audit + visibility upgrade,osm,2026-05-04T11:47:22.388875Z
Copas,restaurant,Mount Lebanon,LB,"برمانا, Broumana",33.8855576,35.6393939,+961 4 963 999,,http://www.copas.asia/,False,,,,,3,high,Website rebuild + maintenance,osm,2026-05-04T11:47:22.388875Z
مستشفى لبنان للقلب,hospital,North Lebanon,LB,,34.4188689,35.8287278,+961 6 411 750,,,,https://www.facebook.com/lebanonhearthospital,,,,2,medium,Website launch + capture their existing audience,osm,2026-05-04T11:47:22.388875Z
Osta,pharmacy,Mount Lebanon,LB,Wadi Shahrour,33.8178356,35.5579975,+961 5 943 571,,,,,,,,2,medium,Full digital launch (brand + website + social setup),osm,2026-05-04T11:47:22.388875Z
مستشفى شتورا,hospital,Bekaa,LB,شتورا,33.8192371,35.8586781,+9618544022,,http://www.chtourahospital.com,True,,,,,3,medium,SEO audit + visibility upgrade,osm,2026-05-04T11:47:22.388875Z
مطعم الشلالات الزرقا,restaurant,Mount Lebanon,LB,,33.6525097,35.5337695,+961 5 301 149,,,,,,,,1,high,"RTYLR commerce OS (POS, online ordering, CRM)",osm,2026-05-04T11:47:22.388875Z
مختبرات الحدث,clinic,Mount Lebanon,LB,,33.8394642,35.5303506,+9615464403,,,,,,,,1,high,Lead-gen website + Google Ads launch,osm,2026-05-04T11:47:22.388875Z
مطعم السلطان جبيل,restaurant,North Lebanon,LB,,34.1219923,35.6436274,+9619550777,,,,,,,,1,high,"RTYLR commerce OS (POS, online ordering, CRM)",osm,2026-05-04T11:47:22.388875Z
زهير,fast_food,Mount Lebanon,LB,,33.8404637,35.5327688,+9615470504,,,,,,,,1,high,"RTYLR commerce OS (POS, online ordering, CRM)",osm,2026-05-04T11:47:22.388875Z
my bakery,bakery,Mount Lebanon,LB,,33.8243316,35.5445568,+9615922367,,,,,,,,1,medium,Full digital launch (brand + website + social setup),osm,2026-05-04T11:47:22.388875Z
Hôpital Libano-Français,hospital,Bekaa,LB,,33.8334351,35.9124998,+961 8 810 121,,,,,,,,1,medium,Full digital launch (brand + website + social setup),osm,2026-05-04T11:47:22.388875Z
صيدلية سان شارل,pharmacy,Mount Lebanon,LB,,33.845676,35.5466775,+9615952822,pharmacy.st-charles@outlook.com,,,,,,,2,medium,Full digital launch (brand + website + social setup),osm,2026-05-04T11:47:22.388875Z
أتويه,clothes,Mount Lebanon,LB,الحدث,33.8330102,35.5303192,+9615464096,,,,,,,,2,high,Full digital launch (brand + website + social setup),osm,2026-05-04T11:47:22.388875Z
EKT Katrangi,electronics,Beirut,LB,"شارع خليل مطران, Beyrouth",33.864812,35.4904856,+961 1 820 020,,https://www.katranji.com,True,,,,,3,medium,SEO audit + visibility upgrade,osm,2026-05-04T11:47:22.388875Z
Clinilab,clinic,Beirut,LB,,33.8495472,35.5349449,+9615956011,,,,,,,,1,high,Lead-gen website + Google Ads launch,osm,2026-05-04T11:47:22.388875Z
hawilo hadath,fast_food,Mount Lebanon,LB,,33.8407311,35.5327473,+9615462456,,,,,,,,1,high,"RTYLR commerce OS (POS, online ordering, CRM)",osm,2026-05-04T11:47:22.388875Z
Papitto,laundry,Mount Lebanon,LB,,33.8055452,35.5414058,+9615430677,,,,,,,,1,medium,Full digital launch (brand + website + social setup),osm,2026-05-04T11:47:22.388875Z
Samar,pharmacy,Mount Lebanon,LB,,33.8428302,35.5299652,+9615469881,,,,,,,,1,medium,Full digital launch (brand + website + social setup),osm,2026-05-04T11:47:22.388875Z
Abi Nader,marketplace,Mount Lebanon,LB,,33.8254889,35.5455226,+9615922811,,,,,,,,1,medium,Full digital launch (brand + website + social setup),osm,2026-05-04T11:47:22.388875Z
lalous argileh,tobacco,Mount Lebanon,LB,,33.8026259,35.5440176,+9615431368,,,,,,,,1,medium,Full digital launch (brand + website + social setup),osm,2026-05-04T11:47:22.388875Z
جفينور روتانا,hotel,Beirut,LB,,33.8980962,35.4879423,+9611371888,,,,,,,,1,high,"RTYLR commerce OS (POS, online ordering, CRM)",osm,2026-05-04T11:47:22.388875Z
Vista del Mar,hotel,Mount Lebanon,LB,,33.994658,35.6422228,+9619639799,,,,,,,,1,high,"RTYLR commerce OS (POS, online ordering, CRM)",osm,2026-05-04T11:47:22.388875Z
موج البحر,restaurant,Mount Lebanon,LB,,33.9945666,35.6406626,+9619914414,,,,,,,,1,high,"RTYLR commerce OS (POS, online ordering, CRM)",osm,2026-05-04T11:47:22.388875Z
Makhlouf,restaurant,Mount Lebanon,LB,,33.9885817,35.6374521,+961 9 645 192,,,,,,,,1,high,"RTYLR commerce OS (POS, online ordering, CRM)",osm,2026-05-04T11:47:22.388875Z
El Mina,convenience,Mount Lebanon,LB,,33.9879854,35.6371376,+9619637382,,,,,,,,1,medium,"RTYLR commerce OS (POS, online ordering, CRM)",osm,2026-05-04T11:47:22.388875Z
Maison Swiss,bar,Mount Lebanon,LB,,33.987383,35.6371741,+9619930807,,,,,,,,1,high,"RTYLR commerce OS (POS, online ordering, CRM)",osm,2026-05-04T11:47:22.388875Z
Concept,car_rental,Mount Lebanon,LB,,33.9934074,35.6420657,+9619910091,,,,,,,,1,medium,Full digital launch (brand + website + social setup),osm,2026-05-04T11:47:22.388875Z
Al Murjan Palace Hotel,hotel,Mount Lebanon,LB,,33.9914977,35.6414817,+9619832199,,,,,,,,1,high,"RTYLR commerce OS (POS, online ordering, CRM)",osm,2026-05-04T11:47:22.388875Z
مانويلا,restaurant,Mount Lebanon,LB,,34.004112,35.6447601,+961 9 830 000,,,,,,,,1,high,"RTYLR commerce OS (POS, online ordering, CRM)",osm,2026-05-04T11:47:22.388875Z
بربكيو,fast_food,Mount Lebanon,LB,,33.9818277,35.6286457,+961 9 936 906,,,,,,,,1,high,"RTYLR commerce OS (POS, online ordering, CRM)",osm,2026-05-04T11:47:22.388875Z
Khodr Jewelry,jewelry,Beirut,LB,شارع أمين منيمنة,33.8929773,35.4853709,+9611343539,info@khodrjewelry.com,https://www.khodrjewelry.com/,False,,,,,4,high,Website rebuild + maintenance,osm,2026-05-04T11:47:22.388875Z
Regency Palace,hotel,Mount Lebanon,LB,,34.018442,35.6485142,+961 9 854 000;+961 9 854 854,,,,,,,,1,high,"RTYLR commerce OS (POS, online ordering, CRM)",osm,2026-05-04T11:47:22.388875Z
Abdo Couture,clothes,Beirut,LB,,33.8732185,35.5221117,+9611280020,,,,,,,,1,high,Full digital launch (brand + website + social setup),osm,2026-05-04T11:47:22.388875Z
Chady Abi Aad,electronics,Mount Lebanon,LB,,33.8907552,35.5581884,+9611881231,,,,,,,,1,medium,Full digital launch (brand + website + social setup),osm,2026-05-04T11:47:22.388875Z
Centre de Design Farra,furniture,Mount Lebanon,LB,"155, طريق برمانا الرئيسية, Metn",33.8638968,35.5469009,+961 1 687 000,,http://www.farra.com,True,,,,,3,medium,SEO audit + visibility upgrade,osm,2026-05-04T11:47:22.388875Z
Sushiway,restaurant,Mount Lebanon,LB,,34.0138415,35.6471309,+961 9 850 825,,,,,,,,1,high,"RTYLR commerce OS (POS, online ordering, CRM)",osm,2026-05-04T11:47:22.388875Z
Napoleon Hotel,hotel,Beirut,LB,"Nehme Yafet, Bayrut, Lebanon",33.897331199999996,35.479969,01 340 013,,http://www.napoleonbeirut.com/,True,,,3.4,554,3,high,Reputation + SEO turnaround,google_places|osm,2026-05-04T11:47:22.394171Z
رصيف بيروت,restaurant,Beirut,LB,"شارع عمر بن عبد العزيز, Beyrouth",33.8974423,35.4844673,+9611736727,,,,,,,,2,high,"RTYLR commerce OS (POS, online ordering, CRM)",osm,2026-05-04T11:47:22.388875Z
A New Earth Organic Store,supermarket,Beirut,LB,شارع زهرة الإحسان,33.8897362,35.5174801,+961 1 219 920,,https://www.anewearth.net/,True,,,,,3,medium,SEO audit + visibility upgrade,osm,2026-05-04T11:47:22.388875Z
ملك الطاووق أبراج,fast_food,Beirut,LB,,33.8680207,35.5263357,+9611281678,,,,,,,,1,high,"RTYLR commerce OS (POS, online ordering, CRM)",osm,2026-05-04T11:47:22.388875Z
MidTown Hotel & Suites,hotel,South Lebanon,LB,"483, شارع صوراتي, Beyrouth",33.8971008,35.4834235,+961 1 347 555,,,,https://www.facebook.com/MidtownHotelSuites,,,,3,high,Website launch + capture their existing audience,osm,2026-05-04T11:47:22.388875Z
صب معادن أرتين,convenience,Mount Lebanon,LB,,33.8853167,35.551827,+9611488500,,,,,,,,1,medium,"RTYLR commerce OS (POS, online ordering, CRM)",osm,2026-05-04T11:47:22.388875Z
برد هوس,bakery,North Lebanon,LB,كفر عبيدا,34.2292929,35.6600723,+9616643000,,,,,,,,2,medium,Full digital launch (brand + website + social setup),osm,2026-05-04T11:47:22.388875Z
تي إس سي بلوس,supermarket,Mount Lebanon,LB,"Al Sayyad Round About, Baabda",33.8543472,35.5347045,+961 5 955 200,,https://www.sultan-center.com/Default.aspx?pageId=525,True,,,,,3,medium,SEO audit + visibility upgrade,osm,2026-05-04T11:47:22.388875Z
ملحمة الحدشيتي,butcher,Mount Lebanon,LB,,33.8279785,35.5278706,+9615469153,,,,,,,,1,medium,Full digital launch (brand + website + social setup),osm,2026-05-04T11:47:22.388875Z
ماكدونالدز,fast_food,Mount Lebanon,LB,,33.8543587,35.5701848,+9614534072,,,,,,,,1,high,"RTYLR commerce OS (POS, online ordering, CRM)",osm,2026-05-04T11:47:22.388875Z
اسناك الجزيرة,bakery,Beirut,LB,"شارع دونان, بيروت",33.8931656,35.4875864,+961 1 755 557,,,,,,,,2,medium,Full digital launch (brand + website + social setup),osm,2026-05-04T11:47:22.388875Z
Focal Point,garden_centre,Mount Lebanon,LB,,33.8699812,35.6067235,+9614870995,,,,,,,,1,medium,Full digital launch (brand + website + social setup),osm,2026-05-04T11:47:22.388875Z
Grand Hills,hotel,Mount Lebanon,LB,"Charkieh Main Road, Broumana",33.8770925,35.6241206,+961 4 868 888,reservations.grandhills@luxurycollection.com,https://www.marriott.com/hotels/travel/beylc-grand-hills-a-luxury-collection-hotel-and-spa-broumana/,True,,,,,4,high,SEO audit + visibility upgrade,osm,2026-05-04T11:47:22.388875Z
لايت آرت,photo,Beirut,LB,,33.8469923,35.5262023,+9615463850,,,,,,,,1,medium,Full digital launch (brand + website + social setup),osm,2026-05-04T11:47:22.388875Z
بطل للانارة,furniture,Beirut,LB,,33.8802872,35.4928284,+9611706706,,,,,,,,1,medium,Full digital launch (brand + website + social setup),osm,2026-05-04T11:47:22.388875Z
كاليري بيضون,furniture,Beirut,LB,,33.8744788,35.5072986,+9611633616,,,,,,,,1,medium,Full digital launch (brand + website + social setup),osm,2026-05-04T11:47:22.388875Z
Deek Duke,restaurant,Mount Lebanon,LB,,33.9296466,35.5886416,+961 4 524 790,,,,,,,,1,high,"RTYLR commerce OS (POS, online ordering, CRM)",osm,2026-05-04T11:47:22.388875Z
مركز السيدة,hospital,Mount Lebanon,LB,,33.9100619,35.5874143,+9614713100;+9614713101;+9614713102;+9614713103,,,,,,,,1,medium,Full digital launch (brand + website + social setup),osm,2026-05-04T11:47:22.388875Z
The Peninsula,restaurant,Mount Lebanon,LB,,33.9470802,35.5937397,+961 4 540 240,info@thepeninsula.com.lb,https://www.thepeninsula.com.lb/,True,https://m.facebook.com/thepeninsularestaurantandgardens/,,,,4,high,SEO audit + visibility upgrade,osm,2026-05-04T11:47:22.388875Z
Murray,restaurant,Mount Lebanon,LB,,33.9184787,35.5873168,+9614444213,,,,,,,,1,high,"RTYLR commerce OS (POS, online ordering, CRM)",osm,2026-05-04T11:47:22.388875Z
Résidence de France,hotel,Mount Lebanon,LB,27,33.9491476,35.593779,+9614540797,,,,,,,,2,high,"RTYLR commerce OS (POS, online ordering, CRM)",osm,2026-05-04T11:47:22.388875Z
964 Resto Cafe,restaurant,Mount Lebanon,LB,,33.9187557,35.5879347,+961 4 444 810,,,,,,,,1,high,"RTYLR commerce OS (POS, online ordering, CRM)",osm,2026-05-04T11:47:22.388875Z
McDonald's,fast_food,North Lebanon,LB,,34.1360407,35.6453389,+9619622056,,,,,,,,1,high,"RTYLR commerce OS (POS, online ordering, CRM)",osm,2026-05-04T11:47:22.388875Z
مسعد,fast_food,Beirut,LB,,33.8595141,35.5371068,+9615450048,,,,,,,,1,high,"RTYLR commerce OS (POS, online ordering, CRM)",osm,2026-05-04T11:47:22.388875Z
Pit Stop Cafe,cafe,Mount Lebanon,LB,,33.9563159,35.6114276,+9619219999,,,,,,,,1,high,"RTYLR commerce OS (POS, online ordering, CRM)",osm,2026-05-04T11:47:22.388875Z
Pharmacie Bakhos,pharmacy,Mount Lebanon,LB,,34.0139943,35.6469872,+961 9 853 254,,,,,,,,1,medium,Full digital launch (brand + website + social setup),osm,2026-05-04T11:47:22.388875Z
zaatar w zeit,restaurant,Mount Lebanon,LB,,33.9297523,35.5894042,+961 4 521 978,,,,,,,,1,high,"RTYLR commerce OS (POS, online ordering, CRM)",osm,2026-05-04T11:47:22.388875Z
بابل,restaurant,Mount Lebanon,LB,,33.9414709,35.5920544,+9614546546,,https://www.babelrestaurant.com/,True,,,,,2,high,SEO audit + visibility upgrade,osm,2026-05-04T11:47:22.388875Z
جوجو لامب,electronics,Beirut,LB,,33.8495292,35.5046862,+9611559899,,,,,,,,1,medium,Full digital launch (brand + website + social setup),osm,2026-05-04T11:47:22.388875Z
Swiss Butter,restaurant,Bekaa,LB,Zahlé,33.8547032,35.8945703,+961 8 818 518,,,,,,,,2,high,"RTYLR commerce OS (POS, online ordering, CRM)",osm,2026-05-04T11:47:22.388875Z
Platea,hotel,Mount Lebanon,LB,,33.9976363,35.6490573,+9619831666,,,,,,,,1,high,"RTYLR commerce OS (POS, online ordering, CRM)",osm,2026-05-04T11:47:22.388875Z
فرن العذرا,fast_food,Mount Lebanon,LB,,34.0632699,35.7090892,+9619860885,,,,,,,,1,high,"RTYLR commerce OS (POS, online ordering, CRM)",osm,2026-05-04T11:47:22.388875Z
برادي حمود,curtain,Beirut,LB,,33.858105,35.5102161,+9611273315;+9611273385,,,,,,,,1,medium,Full digital launch (brand + website + social setup),osm,2026-05-04T11:47:22.388875Z
Securol,curtain,Mount Lebanon,LB,,33.7794537,35.4744263,+9615801461,,,,,,,,1,medium,Full digital launch (brand + website + social setup),osm,2026-05-04T11:47:22.388875Z
صالح ديكو,furniture,Beirut,LB,"شارع ألفريد نقاش, بيروت",33.8824458,35.5209111,+961 1 398 449,info@salehdeo.com,https://salehdeco.com/,True,SalehDecosal,,,,5,medium,SEO audit + visibility upgrade,osm,2026-05-04T11:47:22.388875Z
مستشفى سيدة المعونات جبيل,hospital,North Lebanon,LB,,34.1281622,35.6588606,+961 9 940 400,info@chu-nds.org,http://chu-nds.org/,True,,,,,3,medium,SEO audit + visibility upgrade,osm,2026-05-04T11:47:22.388875Z
Université Libano-Française,university,North Lebanon,LB,"Boulevard Béchara el Khoury, Tripoli",34.4286331,35.8322329,+961 6 425 608;+961 6 425 609,info@ulf.edu.lb,http://ulf.edu.lb/,True,,,,,4,medium,SEO audit + visibility upgrade,osm,2026-05-04T11:47:22.388875Z
Storiom - Supercenter,department_store,Mount Lebanon,LB,Main، Lebanon,33.9206177,35.6305845,04 922 934,info@storiomsaliba.com,http://www.storiom.com.lb/,True,,,4.4,1431,4,medium,Discovery call - scope the right service,google_places|osm,2026-05-04T11:47:22.394171Z
مستشفى مظلوم,hospital,North Lebanon,LB,"شارع أشرف كبارة, طرابلس",34.431834,35.8327696,+9616410025,info@newmazloum.com,http://newmazloum.com,True,https://www.facebook.com/newmazloumhospital,,,,5,medium,SEO audit + visibility upgrade,osm,2026-05-04T11:47:22.388875Z
صيدلية شعلان,pharmacy,Akkar,LB,طريق وادي خالد,34.6386194,36.3634359,+9616870110,,,,,,,,2,medium,Full digital launch (brand + website + social setup),osm,2026-05-04T11:47:22.388875Z
شادي نجار,electronics,Beirut,LB,,33.8768815,35.5059099,+9611630620,,,,,,,,1,medium,Full digital launch (brand + website + social setup),osm,2026-05-04T11:47:22.388875Z
Boulangerie Kolkas,bakery,Beirut,LB,,33.8592872,35.5089707,+961 1 555 132,,,,,,,,1,medium,Full digital launch (brand + website + social setup),osm,2026-05-04T11:47:22.388875Z
Saniour,restaurant,Mount Lebanon,LB,,33.9987977,35.6480661,+9619933944,,,,,,,,1,high,"RTYLR commerce OS (POS, online ordering, CRM)",osm,2026-05-04T11:47:22.388875Z
اوركا,shoes,Beirut,LB,,33.8476184,35.5248293,+9615467300;+9615467302,,,,,,,,1,high,Full digital launch (brand + website + social setup),osm,2026-05-04T11:47:22.388875Z
Allied Computer Services ALCS,computer,Mount Lebanon,LB,,33.900963,35.6045228,+9614727010;+9614717002,,,,,,,,1,high,Full digital launch (brand + website + social setup),osm,2026-05-04T11:47:22.388875Z
Saba Supermarket,supermarket,Mount Lebanon,LB,طريق انطلياس بكفيا,33.9206561,35.6878047,+9614980077,,,,,,,,2,medium,"RTYLR commerce OS (POS, online ordering, CRM)",osm,2026-05-04T11:47:22.388875Z
AKL Stores,clothes,Beirut,LB,,33.85939,35.5360561,+9615454381,,,,,,,,1,high,Full digital launch (brand + website + social setup),osm,2026-05-04T11:47:22.388875Z
دي آش إل,post_office,Beirut,LB,"شارع الأمير بشير, بيروت",33.8946945,35.5057092,+9611629700,,http://dhl.com.lb,False,,,,,3,medium,Website rebuild + maintenance,osm,2026-05-04T11:47:22.388875Z
SSCC Bikfaya,school,Mount Lebanon,LB,,33.9210126,35.6820619,+961 4 980 510,,http://www.bikfaya.sscc.edu.lb/,True,,,,,2,medium,SEO audit + visibility upgrade,osm,2026-05-04T11:47:22.388875Z
Wooden Bakery,bakery,Mount Lebanon,LB,,34.0222814,35.6468058,+9619855935,,,,,,,,1,medium,Full digital launch (brand + website + social setup),osm,2026-05-04T11:47:22.388875Z
Saab,restaurant,Mount Lebanon,LB,,33.918608,35.6774327,+9614986269,,,,,,,,1,high,"RTYLR commerce OS (POS, online ordering, CRM)",osm,2026-05-04T11:47:22.388875Z
Atyãb Harissa Restaurant,cafe,Mount Lebanon,LB,,33.9815459,35.6520239,+9619263030,,,,,,,,1,high,"RTYLR commerce OS (POS, online ordering, CRM)",osm,2026-05-04T11:47:22.388875Z
Hilton Beirut Habtoor Grand,hotel,Beirut,LB,"Charles De Gaulle Street, Beyrouth",33.869416,35.5372243,+961 1 500 666,BeirutHabtoorGrand.Information@hilton.com,https://www.hilton.com/en/hotels/beyhghi-hilton-beirut-habtoor-grand,True,http://www.facebook.com/HiltonBeirutHabtoorGrand,https://instagram.com/hiltonbeirut,,,5,high,SEO audit + visibility upgrade,osm,2026-05-04T11:47:22.388875Z
Gourma,restaurant,Mount Lebanon,LB,أتستراد البحر,34.0177117,35.6316217,+9619856609,thegourma@gmail.com,,,,,,,3,high,"RTYLR commerce OS (POS, online ordering, CRM)",osm,2026-05-04T11:47:22.388875Z
شاورما الزهراء,fast_food,Beirut,LB,أوتستراد هادي نصرالله,33.8601414,35.5116712,+9611277860,,,,,,,,2,high,"RTYLR commerce OS (POS, online ordering, CRM)",osm,2026-05-04T11:47:22.388875Z
Sfeir Industries-Stainless Steel,furniture,Mount Lebanon,LB,,33.8925828,35.5590614,+9611884666,,,,,,,,1,medium,Full digital launch (brand + website + social setup),osm,2026-05-04T11:47:22.388875Z
مجموعة البضن,clothes,North Lebanon,LB,طريق البحر,34.4478986,35.825643,+9616600558,info@bodongroup.com,http://www.bodongroup.com,False,,,,,4,high,Website rebuild + maintenance,osm,2026-05-04T11:47:22.388875Z
مختبرات الدكتور نعمه,clinic,Mount Lebanon,LB,,33.8925258,35.5586191,+9611253117,lab_naame@idm.net.lb,,,,,,,2,high,Lead-gen website + Google Ads launch,osm,2026-05-04T11:47:22.388875Z
جبنة وليام,fast_food,Mount Lebanon,LB,ريفون,33.9764074,35.7114992,+9619957990,,,,,,,,2,high,"RTYLR commerce OS (POS, online ordering, CRM)",osm,2026-05-04T11:47:22.388875Z
Media Square,photo,Mount Lebanon,LB,جل الديب,33.906883,35.5857298,+9614719919,info@mediasquare.tv,https://www.mediasquare.tv/,True,,,,,4,medium,SEO audit + visibility upgrade,osm,2026-05-04T11:47:22.388875Z
مطعم برج,restaurant,Beirut,LB,,33.848684,35.4926971,+9611453777,info@bridgerest.net,http://www.bridgerest.net,False,,,,,3,high,Website rebuild + maintenance,osm,2026-05-04T11:47:22.388875Z
Strand Réstocafé,restaurant,Bekaa,LB,,33.9097189,35.7569093,+961 4 295 681,,,,,,,,1,high,"RTYLR commerce OS (POS, online ordering, CRM)",osm,2026-05-04T11:47:22.388875Z
روت فورتي وان,restaurant,Mount Lebanon,LB,"41, Kferchima Main",33.8165845,35.5324613,+9615433783,,,,,,,,2,high,"RTYLR commerce OS (POS, online ordering, CRM)",osm,2026-05-04T11:47:22.388875Z
ناتكو (كيا),car_repair,Beirut,LB,بيروت,33.8889766,35.5322841,+961 1 574 999,,,,,,,,2,medium,Full digital launch (brand + website + social setup),osm,2026-05-04T11:47:22.388875Z
عيادة الدكتور بري الاسعد,doctors,Akkar,LB,,34.6215041,36.3894353,+9616870044,,,,,,,,1,high,Lead-gen website + Google Ads launch,osm,2026-05-04T11:47:22.388875Z
عبده ألمانيا,car_rental,Mount Lebanon,LB,"شارع الأخوين رحباني, أنطلياس",33.9175329,35.5872473,+961 4 411 310,,,,,,,,2,medium,Full digital launch (brand + website + social setup),osm,2026-05-04T11:47:22.388875Z
مسعد,fast_food,North Lebanon,LB,,34.1247169,35.6489922,+9619856030,,,,,,,,1,high,"RTYLR commerce OS (POS, online ordering, CRM)",osm,2026-05-04T11:47:22.388875Z
فاركم,mobile_phone,Mount Lebanon,LB,شارع 19,33.8879216,35.5591609,+961 1 888 232,farcom.lb@gmail.com,,,,,,,3,medium,Full digital launch (brand + website + social setup),osm,2026-05-04T11:47:22.388875Z
M.K Trading,pharmacy,Mount Lebanon,LB,أتستراد البحر,33.897316,35.5584158,+9611876037,michoco50@hotmail.com,http://www.chocoreyo.com,False,,,,,4,medium,Website rebuild + maintenance,osm,2026-05-04T11:47:22.388875Z
Zen Spa,cosmetics,Bekaa,LB,Ksara round point,33.8223529,35.8892255,+9618507906,info@zenspalebanon.com,http://www.zenspalebanon.com,False,,,,,4,high,Website rebuild + maintenance,osm,2026-05-04T11:47:22.388875Z
Chezena,beauty,Bekaa,LB,ksara round point,33.8229535,35.8901946,+961 8 507 860,info@chezena.com,http://www.chezena.com,True,,,,,4,high,SEO audit + visibility upgrade,osm,2026-05-04T11:47:22.388875Z
مستشفى سرحال,hospital,Mount Lebanon,LB,,33.9149893,35.6085047,+9614405050,h.serhal@sodetel.net.lb,http://www.hopitaldrsserhal.com/,True,https://m.facebook.com/profile.php?id=551897948172594,,,,4,medium,SEO audit + visibility upgrade,osm,2026-05-04T11:47:22.388875Z
Dani Cell,mobile_phone,Mount Lebanon,LB,,33.7928606,35.4925874,+9615804319,,,,,,,,1,medium,Full digital launch (brand + website + social setup),osm,2026-05-04T11:47:22.388875Z
عيادة سبليني,clinic,Beirut,LB,Boulevard Saëb Salam,33.8777804,35.5032947,+9611660940,drsiblini@gmail.com,,,,,,,3,high,Lead-gen website + Google Ads launch,osm,2026-05-04T11:47:22.388875Z
صيدليّة ألما,pharmacy,Beirut,LB,,33.89239,35.499787,+9611377041,,,,,,,,1,medium,Full digital launch (brand + website + social setup),osm,2026-05-04T11:47:22.388875Z
صيدلية شهاب,pharmacy,Beirut,LB,,33.8893223,35.5024125,+9611663600,,,,,,,,1,medium,Full digital launch (brand + website + social setup),osm,2026-05-04T11:47:22.388875Z
صيدلية سوبركير,pharmacy,Beirut,LB,,33.8688261,35.5169748,+9611382388,,,,,,,,1,medium,Full digital launch (brand + website + social setup),osm,2026-05-04T11:47:22.388875Z
د. تحسين الثمين,dentist,North Lebanon,LB,Fouad Chihab,34.4402481,35.8386382,+9616625631,,,,,,,,2,high,Lead-gen website + Google Ads launch,osm,2026-05-04T11:47:22.388875Z
مستشفی البيسار,hospital,North Lebanon,LB,,34.4394104,35.8402355,+9616432267;+961430365,,,,,,,,1,medium,Full digital launch (brand + website + social setup),osm,2026-05-04T11:47:22.388875Z
شركة دريلرز,hardware,North Lebanon,LB,الثقافة,34.4404609,35.8384828,+9616425054,,http://www.drillerz.com,True,,,,,3,medium,SEO audit + visibility upgrade,osm,2026-05-04T11:47:22.388875Z
Tallet Nasr,restaurant,Mount Lebanon,LB,,33.9083844,35.676303,+9614983549,,,,,,,,1,high,"RTYLR commerce OS (POS, online ordering, CRM)",osm,2026-05-04T11:47:22.388875Z
المستشفى اللبناني الإيطالي,hospital,South Lebanon,LB,,33.2536563,35.2246045,+9617344423,,,,,,,,1,medium,Full digital launch (brand + website + social setup),osm,2026-05-04T11:47:22.388875Z
Moulin d'Or,fast_food,North Lebanon,LB,جبيل,34.123729,35.6572523,+9619543999,,,,,,,,2,high,"RTYLR commerce OS (POS, online ordering, CRM)",osm,2026-05-04T11:47:22.388875Z
مطعم كرم,restaurant,Akkar,LB,"طريق كفرنون القطلبة, القبيات",34.5676287,36.2809484,+9616350227,info@karams.org,http://www.karams.org,True,,,,,4,high,SEO audit + visibility upgrade,osm,2026-05-04T11:47:22.388875Z
Library samaha,books,Mount Lebanon,LB,ghadir jounie,33.977884,35.631721,+9619900353,,,,,,,,2,medium,Full digital launch (brand + website + social setup),osm,2026-05-04T11:47:22.388875Z
مصبغة بلازا,laundry,Beirut,LB,شارع بني معروف,33.8902191,35.4869465,+9611740260,,,,,,,,2,medium,Full digital launch (brand + website + social setup),osm,2026-05-04T11:47:22.388875Z
KBC Workwear,tailor,Mount Lebanon,LB,,33.9657284,35.6169879,+9619219811,info@kbcworkwear.com,http://www.kbcworkwear.com,True,,,,,3,medium,SEO audit + visibility upgrade,osm,2026-05-04T11:47:22.388875Z
Maison de la Sécurité,computer,Mount Lebanon,LB,"1068, Route Principale de Broumana;, Mansouriyé",33.8585894,35.5640627,+9614534861,mdls@dm.net.lb,,,,,,,3,high,Full digital launch (brand + website + social setup),osm,2026-05-04T11:47:22.388875Z
سنتر فنزويلا,clothes,Mount Lebanon,LB,Rue Fouad Chehab,33.982559,35.6302251,+9619635019,domestica.jose@yahoo.com,,,,,,,3,high,Full digital launch (brand + website + social setup),osm,2026-05-04T11:47:22.388875Z
Dr Fadi Geara,doctors,Mount Lebanon,LB,Rue 5,33.9494942,35.6511304,+961 9 237 651,fadi.geara@usj.edu.lb,,,,,,,3,high,Lead-gen website + Google Ads launch,osm,2026-05-04T11:47:22.388875Z
فندق كميلوت,hotel,Mount Lebanon,LB,,34.007014,35.6487752,+9619855222,,,,,,,,1,high,"RTYLR commerce OS (POS, online ordering, CRM)",osm,2026-05-04T11:47:22.388875Z
سوبرماركت خوري,supermarket,North Lebanon,LB,Route Jrâne,34.2202044,35.7150534,+9616720888,,,,,,,,2,medium,"RTYLR commerce OS (POS, online ordering, CRM)",osm,2026-05-04T11:47:22.388875Z
White City,convenience,Mount Lebanon,LB,Abi El-Lameh Street,33.890727,35.567844,+9611886880,,http://whitecity.com,False,,,,,3,medium,Website rebuild + maintenance,osm,2026-05-04T11:47:22.388875Z
منزل أبي راشد,guest_house,North Lebanon,LB,Dahr El-Arbeh,34.2340397,35.7157337,+9616720323,mhabeeabirached@gmail.com,https://www.couchsurfing.com/people/mhabe-camil-abirached,True,,,,,4,high,SEO audit + visibility upgrade,osm,2026-05-04T11:47:22.388875Z
صالون وسام بو غصن للسيدات,hairdresser,Mount Lebanon,LB,Bsalim exit,33.9003137,35.5982382,+9614723760,wissamboughosn@hotmail.com,,,,,,,3,medium,Full digital launch (brand + website + social setup),osm,2026-05-04T11:47:22.388875Z
سانت ميشال بيت شباب,pharmacy,Mount Lebanon,LB,,33.9253918,35.6777882,+961 4 983 703,,,,,,,,1,medium,Full digital launch (brand + website + social setup),osm,2026-05-04T11:47:22.388875Z
اوبتيك الرشيد,optician,North Lebanon,LB,شارع عزمي بك,34.4385498,35.8378217,+9616628354,,,,,,,,2,high,Lead-gen website + Google Ads launch,osm,2026-05-04T11:47:22.388875Z
Saradar Bank,bank,Beirut,LB,جادة شارل مالك,33.892783,35.5089121,+9611339000,,,,,,,,2,medium,Full digital launch (brand + website + social setup),osm,2026-05-04T11:47:22.388875Z
أندريه مارشا,jewelry,Beirut,LB,"55, Selim Abdel Adi",33.8905356,35.5141194,+9611337077,,https://www.andremarcha.com,True,,,,,3,high,SEO audit + visibility upgrade,osm,2026-05-04T11:47:22.388875Z
ماء الذهب للعطور,beauty,Beirut,LB,شارع عمر بن عبد العزيز,33.8979292,35.4841202,+9611750815,hamra.maaalthahab@gmail.com,,,,,,,3,high,Full digital launch (brand + website + social setup),osm,2026-05-04T11:47:22.388875Z
Bchamoun Specialty Hospital,hospital,Mount Lebanon,LB,"Bchamoun, Lebanon",33.783049,35.5233361,05 270 970,,,,https://www.facebook.com/bshamounspecialtyhospital,https://www.instagram.com/explore/locations/1024176296/lebanon/beirut-lebanon/bchamoun-speciality-hospital,3.6,98,3,medium,Website launch + capture their existing audience,google_places|osm,2026-05-04T11:47:22.394171Z
صيدلية الحكمة,pharmacy,Beirut,LB,,33.8899814,35.4996836,+9611845877,,,,,,,,1,medium,Full digital launch (brand + website + social setup),osm,2026-05-04T11:47:22.388875Z
سي سويت,convenience,Beirut,LB,"1 طريق, سن الفيل",33.8733363,35.5414282,+9611512225,info@seasweet.com,https://www.seasweet.com/,True,,,,,4,medium,SEO audit + visibility upgrade,osm,2026-05-04T11:47:22.388875Z
إميليو,confectionery,Mount Lebanon,LB,شارع 72,33.8423508,35.5326813,+9615460158,,http://www.emilioshop.com,True,,,,,3,medium,SEO audit + visibility upgrade,osm,2026-05-04T11:47:22.388875Z
فندق وايت,hotel,Mount Lebanon,LB,,34.0394999,35.6844277,+961 9 740 910,,,,,,,,1,high,"RTYLR commerce OS (POS, online ordering, CRM)",osm,2026-05-04T11:47:22.388875Z
صيدلية إلسي,pharmacy,Mount Lebanon,LB,,34.0344958,35.6694419,+961 9 741 300,,,,,,,,1,medium,Full digital launch (brand + website + social setup),osm,2026-05-04T11:47:22.388875Z
Primutech s.a.r.l.,electronics,Mount Lebanon,LB,Akram Radwan str.,33.7914152,35.485847,+9615811013,,http://wwe.primutech.com,False,,,,,3,medium,Website rebuild + maintenance,osm,2026-05-04T11:47:22.388875Z
غريس,motel,Mount Lebanon,LB,طريق برمانا الرئيسية,33.885046,35.6382056,+9614960715,,,,,,,,2,high,Full digital launch (brand + website + social setup),osm,2026-05-04T11:47:22.388875Z
فتدق ديو روي,hotel,Beirut,LB,,33.8915246,35.5105761,+961 1 798 801,,http://www.duroyhotel.com,True,,,,,2,high,SEO audit + visibility upgrade,osm,2026-05-04T11:47:22.388875Z
Malena,restaurant,North Lebanon,LB,,34.1213409,35.6442473,+961 9 544 111,,,,,,,,1,high,"RTYLR commerce OS (POS, online ordering, CRM)",osm,2026-05-04T11:47:22.388875Z
Bay Rock,restaurant,Beirut,LB,شارع فرسان الهيكل,33.8906881,35.4716054,+961 1 796 700,,https://bayrockcafe.com/,True,,,,,3,high,SEO audit + visibility upgrade,osm,2026-05-04T11:47:22.388875Z
Chef Jack,restaurant,Mount Lebanon,LB,Rond Point Wakim,33.8699535,35.6077322,+961 4 870 324,,,,,,,,2,high,"RTYLR commerce OS (POS, online ordering, CRM)",osm,2026-05-04T11:47:22.388875Z
Il Palmito,restaurant,Mount Lebanon,LB,,33.8731393,35.6111137,+961 4 874 079,,,,,,,,1,high,"RTYLR commerce OS (POS, online ordering, CRM)",osm,2026-05-04T11:47:22.388875Z
فرن بدارو ستريت,bakery,Beirut,LB,,33.8739835,35.51615,+9611381232,,,,,,,,1,medium,Full digital launch (brand + website + social setup),osm,2026-05-04T11:47:22.388875Z
Jean-Claude,restaurant,Beirut,LB,"Achrafieh Debbas, بيروت",33.8922174,35.5194833,+9611333532,info@breakfast-barn.com,https://www.breakfast-barn.com/,True,,,,,4,high,SEO audit + visibility upgrade,osm,2026-05-04T11:47:22.388875Z
L'Abeille d'Or,bakery,Beirut,LB,,33.8882891,35.5248539,+9611204714,,,,,,,,1,medium,Full digital launch (brand + website + social setup),osm,2026-05-04T11:47:22.388875Z
سانت جاك زكريت,pharmacy,Mount Lebanon,LB,,33.9366818,35.6299333,+9614915730,,,,,,,,1,medium,Full digital launch (brand + website + social setup),osm,2026-05-04T11:47:22.388875Z
ة مربوطة,restaurant,Beirut,LB,Hamra,33.8958908,35.4828701,+961 1 743 882,,,,https://www.facebook.com/tmarbouta/,,,,3,high,Website launch + capture their existing audience,osm,2026-05-04T11:47:22.388875Z
Kampaï,restaurant,Beirut,LB,شارع رفيق سلوم,33.8991653,35.5006417,+961 1 999 093,,http://www.kampai.co,True,,,,,3,high,SEO audit + visibility upgrade,osm,2026-05-04T11:47:22.388875Z
صيدلية الصباح,pharmacy,Mount Lebanon,LB,الضبية,33.9492897,35.5954365,+9614544337,,,,,,,,2,medium,Full digital launch (brand + website + social setup),osm,2026-05-04T11:47:22.388875Z
دار الحوراء الطبي,clinic,Beirut,LB,"بئر العبد, حارة حريك",33.8549457,35.5117937,+9611544889,,,,,,,,2,high,Lead-gen website + Google Ads launch,osm,2026-05-04T11:47:22.388875Z
Resto Ghazar,restaurant,Mount Lebanon,LB,,33.9136338,35.5862727,+961 4 408 060,,,,,,,,1,high,"RTYLR commerce OS (POS, online ordering, CRM)",osm,2026-05-04T11:47:22.388875Z
المنازل,guest_house,Akkar,LB,القبيات,34.5668178,36.2797343,+9616350991,lesdemeureskobayth@gmail.com,,,,,,,3,high,"RTYLR commerce OS (POS, online ordering, CRM)",osm,2026-05-04T11:47:22.388875Z
Bon Goût,confectionery,North Lebanon,LB,,34.4386038,35.8373664,+9616431503,,,,,,,,1,medium,Full digital launch (brand + website + social setup),osm,2026-05-04T11:47:22.388875Z
Rassif Coffee & Tea,cafe,North Lebanon,LB,شارع عشير الدايه,34.423443,35.8263942,+9616412772,,,,,,,,2,high,"RTYLR commerce OS (POS, online ordering, CRM)",osm,2026-05-04T11:47:22.388875Z
شركة برودانت,dentist,Beirut,LB,,33.8829203,35.525581,+9614717332,,https://prodent-me.com/,True,,,,,2,high,SEO audit + visibility upgrade,osm,2026-05-04T11:47:22.388875Z
Roland El Murr,driving_school,Beirut,LB,,33.8867924,35.5283434,+9611326200,,https://www.facebook.com/pages/Roland-El-Murr-Driving-School,True,,,,,2,medium,SEO audit + visibility upgrade,osm,2026-05-04T11:47:22.388875Z
Divvy,restaurant,Beirut,LB,,33.8970409,35.525162,+961 1 444 020,,,,,,,,1,high,"RTYLR commerce OS (POS, online ordering, CRM)",osm,2026-05-04T11:47:22.388875Z
مستشفى الراعي,hospital,South Lebanon,LB,صيدا سينيق,33.5316527,35.3624088,+9617222023;+9617222024;+9617222025,,,,,,,,2,medium,Full digital launch (brand + website + social setup),osm,2026-05-04T11:47:22.388875Z
Librairie Freiha,stationery,Beirut,LB,"شارع ساسين, الاشرفية",33.8859181,35.520522,+9611324204,info@frayhamedia.com,http://www.frayhamedia.com,True,,,,,4,medium,SEO audit + visibility upgrade,osm,2026-05-04T11:47:22.388875Z
فرن الوفاء,bakery,South Lebanon,LB,طريق صيدا القديمة,33.8680505,35.5160366,+961 1 383 675,,http://alwafaabakery.com/,True,,,,,3,medium,SEO audit + visibility upgrade,osm,2026-05-04T11:47:22.388875Z
Socrate Restaurant,restaurant,Beirut,LB,"شارع 64, بيروت",33.8660247,35.487544,+961 1 846646,,https://www.socrate.com,True,,,,,3,high,SEO audit + visibility upgrade,osm,2026-05-04T11:47:22.388875Z
Helado,ice_cream,Mount Lebanon,LB,,34.0002815,35.6490489,+9619938897,,,,,,,,1,high,"RTYLR commerce OS (POS, online ordering, CRM)",osm,2026-05-04T11:47:22.388875Z
Caesar's Park Hotel,hotel,Beirut,LB,,33.8925519,35.484219,+961747711,,,,,,,,1,high,"RTYLR commerce OS (POS, online ordering, CRM)",osm,2026-05-04T11:47:22.388875Z
Crepaway,restaurant,Beirut,LB,Hamra Street,33.8963489,35.4783316,+961 1 289 389,,http://www.crepaway.com/,True,https://m.facebook.com/crepaway/,,,,4,high,SEO audit + visibility upgrade,osm,2026-05-04T11:47:22.388875Z
ملحمة البتول,butcher,Akkar,LB,,34.5892575,36.2292191,+9616830601,,,,,,,,1,medium,Full digital launch (brand + website + social setup),osm,2026-05-04T11:47:22.388875Z
Rose d'Art,florist,Beirut,LB,,33.8751907,35.5236027,+9611612694,,,,,,,,1,medium,Full digital launch (brand + website + social setup),osm,2026-05-04T11:47:22.388875Z
Carrefour,supermarket,Beirut,LB,,33.8610892,35.5296799,+961 1 296 300,,https://www.carrefourlebanon.com/,False,,,,,2,medium,Website rebuild + maintenance,osm,2026-05-04T11:47:22.388875Z
Caravan Serail,restaurant,Beirut,LB,Rue Commodor,33.8951501,35.4806784,+9611350199,,,,,,,,2,high,"RTYLR commerce OS (POS, online ordering, CRM)",osm,2026-05-04T11:47:22.388875Z
فروج طارق,restaurant,Beirut,LB,,33.8480115,35.5074415,+9611559454,,,,,,,,1,high,"RTYLR commerce OS (POS, online ordering, CRM)",osm,2026-05-04T11:47:22.388875Z
فندق لا ميراج,hotel,Mount Lebanon,LB,أتستراد البحر,34.0086343,35.648647,+9619851636,,,,,,,,2,high,"RTYLR commerce OS (POS, online ordering, CRM)",osm,2026-05-04T11:47:22.388875Z
The Standard II,hotel,Beirut,LB,,33.8976837,35.483667,+9611735832,info@beiruthome.com,,,,,,,2,high,"RTYLR commerce OS (POS, online ordering, CRM)",osm,2026-05-04T11:47:22.388875Z
Cash and Carry,garden_centre,Beirut,LB,,33.8859122,35.4822217,+9611788711,info@candclb.com,,,,,,,2,medium,Full digital launch (brand + website + social setup),osm,2026-05-04T11:47:22.388875Z
Pizza guys,fast_food,Beirut,LB,,33.895079,35.5149887,+9611447441,,,,,,,,1,high,"RTYLR commerce OS (POS, online ordering, CRM)",osm,2026-05-04T11:47:22.388875Z
El Qontar Guesthouse,hostel,Mount Lebanon,LB,,33.8909494,35.7411052,+9614295043,,,,,,,,1,high,Full digital launch (brand + website + social setup),osm,2026-05-04T11:47:22.388875Z
Mr. Brown,restaurant,Beirut,LB,جادة إلياس سركيس,33.8867289,35.5176563,+9611745545,,https://mrbrowndiner.com/,True,,,,,3,high,SEO audit + visibility upgrade,osm,2026-05-04T11:47:22.388875Z
المولينو,restaurant,North Lebanon,LB,,34.1225485,35.6431934,+961 9 541 555,,,,,,,,1,high,"RTYLR commerce OS (POS, online ordering, CRM)",osm,2026-05-04T11:47:22.388875Z
المدرسة الأنطوانيّة - جمهور,school,Mount Lebanon,LB,,33.8271998,35.5601773,+961 5 453 233,info@antonines-hazmieh.edu.lb,https://www.antonines-hazmieh.edu.lb/,True,,,,,3,medium,SEO audit + visibility upgrade,osm,2026-05-04T11:47:22.388875Z
Soto Liban,restaurant,Beirut,LB,شارع إبراهيم عبد العال,33.896631,35.4824971,+9611744144,,,,,,,,2,high,"RTYLR commerce OS (POS, online ordering, CRM)",osm,2026-05-04T11:47:22.388875Z
كمبيوتر أيكو,computer,Mount Lebanon,LB,طريق ميرنا الشالوحي,33.8853399,35.5468393,+9611488106,,http://www.computerecho.com,True,,,,,3,high,SEO audit + visibility upgrade,osm,2026-05-04T11:47:22.388875Z
Toy House,toys,Mount Lebanon,LB,"أتستراد البحر, عاليه",33.8065061,35.5999714,+961 5 558 124,toyhouse-lb@hotmail.com,http://www.toyhouse-lb.com,False,,,,,4,medium,Website rebuild + maintenance,osm,2026-05-04T11:47:22.388875Z
Darseen Restaurant,restaurant,Mount Lebanon,LB,sea road zouk,33.9781179,35.6131547,+9619221067,,,,,,,,2,high,"RTYLR commerce OS (POS, online ordering, CRM)",osm,2026-05-04T11:47:22.388875Z
master peintures,hardware,Beirut,LB,"42, أوتوستراد هادي نصرالله",33.8498718,35.5155769,+9611542880,master_paints@hotmail.com,,,,,,,3,medium,Full digital launch (brand + website + social setup),osm,2026-05-04T11:47:22.388875Z
أنتز,gift,Beirut,LB,,33.8987939,35.4808545,+9613184211,,,,,https://www.instagram.com/antsinsta/,,,2,medium,E-commerce launch + Instagram-to-store funnel,osm,2026-05-04T11:47:22.388875Z
ألدورادو,clothes,North Lebanon,LB,,34.1232351,35.6525752,+9619542153,,,,,,,,1,high,Full digital launch (brand + website + social setup),osm,2026-05-04T11:47:22.388875Z
عيادة بيروت للعيون دكتور الكسندر عاصي,clinic,Beirut,LB,جادة سامي الصلح,33.8751539,35.5181241,+9611399299,,http://www.beiruteyeclinic.com/,True,,,,,3,high,SEO audit + visibility upgrade,osm,2026-05-04T11:47:22.388875Z
Ferdinand,bar,Beirut,LB,شارع المهتما غاندي,33.8970906,35.4800335,+9611355955,,,,,,,,2,high,"RTYLR commerce OS (POS, online ordering, CRM)",osm,2026-05-04T11:47:22.388875Z
Basic Outlet,variety_store,Beirut,LB,,33.8528812,35.5383466,+961 5 953 140,,https://basicoutletstores.com/,True,,,,,2,medium,SEO audit + visibility upgrade,osm,2026-05-04T11:47:22.388875Z
فنيش,variety_store,Beirut,LB,Odaimi Street,33.8545439,35.5054623,+9611540786,hasanfneish@hotmail.com,,,,,,,3,medium,Full digital launch (brand + website + social setup),osm,2026-05-04T11:47:22.388875Z
Siena Hotel,hotel,Mount Lebanon,LB,,34.0063773,35.6464615,+9619854472,,,,,,,,1,high,"RTYLR commerce OS (POS, online ordering, CRM)",osm,2026-05-04T11:47:22.388875Z
Luxor Hotel,hotel,Mount Lebanon,LB,,34.0061905,35.6465755,+9619852002,,,,,,,,1,high,"RTYLR commerce OS (POS, online ordering, CRM)",osm,2026-05-04T11:47:22.388875Z
الصفارية,hotel,Mount Lebanon,LB,,34.0141934,35.6555915,+9619921066,info@hotelloriot.com,http://www.hotelloriot.com,False,,,,,3,high,Website rebuild + maintenance,osm,2026-05-04T11:47:22.388875Z
Tartina Di Mare,restaurant,Mount Lebanon,LB,,33.9799744,35.627054,+9619912292,,http://www.tartinadimare.com,False,,,,,2,high,Website rebuild + maintenance,osm,2026-05-04T11:47:22.388875Z
Wooden Bakery,bakery,Mount Lebanon,LB,,34.0115542,35.6516503,+9619853406,,,,,,,,1,medium,Full digital launch (brand + website + social setup),osm,2026-05-04T11:47:22.388875Z
Monte Mare Hotel,hotel,Mount Lebanon,LB,,34.0077085,35.6458125,+9619851624,,,,,,,,1,high,"RTYLR commerce OS (POS, online ordering, CRM)",osm,2026-05-04T11:47:22.388875Z
Mateus Hotel,hotel,Mount Lebanon,LB,,34.0088215,35.6487047,+9619856200,,,,,,,,1,high,"RTYLR commerce OS (POS, online ordering, CRM)",osm,2026-05-04T11:47:22.388875Z
Wooden Bakery - Bikfaya,bakery,Mount Lebanon,LB,"WM9G+35Q, Bikfaiya, Lebanon",33.9177209,35.6754848,04 984 121,,http://www.woodenbakery.com/,True,,,4,341,3,medium,Discovery call - scope the right service,google_places|osm,2026-05-04T11:47:22.394171Z
فندق بروميناد,hotel,Mount Lebanon,LB,,33.9003903,35.5732359,+9611874774,,,,,,,,1,high,"RTYLR commerce OS (POS, online ordering, CRM)",osm,2026-05-04T11:47:22.388875Z
Spirit Sail The Gallery,alcohol,Mount Lebanon,LB,Zalqa,33.8954625,35.5761993,+961 1 895 212,,,,,,,,2,medium,Full digital launch (brand + website + social setup),osm,2026-05-04T11:47:22.388875Z
Malak Al Tawouk,fast_food,North Lebanon,LB,,34.1233908,35.6535674,+9619228005,,http://www.malakaltawouk.com/,True,,,,,2,high,SEO audit + visibility upgrade,osm,2026-05-04T11:47:22.388875Z
السوق الحرة بيروت,mall,Mount Lebanon,LB,,33.8256133,35.4923154,+961 1 629 520,,http://www.beirutdutyfree.com/,True,,,,,2,medium,SEO audit + visibility upgrade,osm,2026-05-04T11:47:22.388875Z
بنك البحر المتوسط,bank,Mount Lebanon,LB,,33.8253338,35.4937038,+961 1 629 360,,https://www.bankmed.com.lb/,True,,,,,2,medium,SEO audit + visibility upgrade,osm,2026-05-04T11:47:22.388875Z
بريد لبنان,post_office,Mount Lebanon,LB,,33.8312188,35.4978223,+961 1 629 629,,,,,,,,1,medium,Full digital launch (brand + website + social setup),osm,2026-05-04T11:47:22.388875Z
Ets. Sayah,optician,Mount Lebanon,LB,,33.9213611,35.6818181,+961 4 980 337,,,,,,,,1,high,Lead-gen website + Google Ads launch,osm,2026-05-04T11:47:22.388875Z
Pharmacie Bikfaya,pharmacy,Mount Lebanon,LB,,33.9221151,35.6863901,+9614984981,,,,,,,,1,medium,Full digital launch (brand + website + social setup),osm,2026-05-04T11:47:22.388875Z
Cnam University Bikfaya,university,Mount Lebanon,LB,,33.9170663,35.6765279,+9614981321,,http://www.cnam-liban.fr/,True,,,,,2,medium,SEO audit + visibility upgrade,osm,2026-05-04T11:47:22.388875Z
Beit Nazha,restaurant,North Lebanon,LB,,34.1213537,35.6470812,+9619540057,,,,,,,,1,high,"RTYLR commerce OS (POS, online ordering, CRM)",osm,2026-05-04T11:47:22.388875Z
é Baladi,restaurant,North Lebanon,LB,,34.1214854,35.647112,+9619542224,,,,,,,,1,high,"RTYLR commerce OS (POS, online ordering, CRM)",osm,2026-05-04T11:47:22.388875Z
أجنحة أربن سنترال - بيروت,hotel,Beirut,LB,"Nefaa, دكوانة",33.880099,35.5440947,+9611488927,reservation@urbancentralsuites.com,,,,,,,3,high,"RTYLR commerce OS (POS, online ordering, CRM)",osm,2026-05-04T11:47:22.388875Z
كلاي,restaurant,Mount Lebanon,LB,,33.9215239,35.6330418,+961 4 914 577,,,,,,,,1,high,"RTYLR commerce OS (POS, online ordering, CRM)",osm,2026-05-04T11:47:22.388875Z
بيتزا هت,restaurant,Mount Lebanon,LB,,33.9254009,35.632545,+961 4 928 581,,https://www.pizzahut-lb.com/,False,,,,,2,high,Website rebuild + maintenance,osm,2026-05-04T11:47:22.388875Z
Domino's,fast_food,Mount Lebanon,LB,,33.9239289,35.6150585,+961 4 924 222,,https://www.dominos.com.lb/ar/,True,,,,,2,high,SEO audit + visibility upgrade,osm,2026-05-04T11:47:22.388875Z
Fahed Supermarket - Mtayleb,supermarket,Mount Lebanon,LB,"WJF6+FFJ, Mtaileb, Lebanon",33.9237095,35.6111453,04 521 003,,https://m.facebook.com/fahedyourcenter/,True,,,4.1,738,3,medium,"RTYLR commerce OS (POS, online ordering, CRM)",google_places|osm,2026-05-04T11:47:22.394171Z
Le Gourmet,restaurant,Mount Lebanon,LB,,33.9179143,35.6755233,+961 4 980 876,,,,,,,,1,high,"RTYLR commerce OS (POS, online ordering, CRM)",osm,2026-05-04T11:47:22.388875Z
Kasso,clothes,Mount Lebanon,LB,,33.9195708,35.6790963,+961 4 980 837,,,,,,,,1,high,Full digital launch (brand + website + social setup),osm,2026-05-04T11:47:22.388875Z
لو شركوتييه عون,supermarket,Beirut,LB,,33.8666789,35.5414265,+961 1 491 946,,,,,,,,1,medium,"RTYLR commerce OS (POS, online ordering, CRM)",osm,2026-05-04T11:47:22.388875Z
لا شيكان,restaurant,Mount Lebanon,LB,,33.9179842,35.6622487,+961 4 986 633,,,,,,,,1,high,"RTYLR commerce OS (POS, online ordering, CRM)",osm,2026-05-04T11:47:22.388875Z
Carre Noir,clothes,North Lebanon,LB,"41, Jbail - Main Street - Near Serail",34.1204997,35.6494814,+9619548123,,,,,,,,2,high,Full digital launch (brand + website + social setup),osm,2026-05-04T11:47:22.388875Z
فندق أورينت برينس,hotel,Beirut,LB,"شارع أمين منيمنة, بيروت",33.8933692,35.4853969,+9611743930,,,,,,,,2,high,"RTYLR commerce OS (POS, online ordering, CRM)",osm,2026-05-04T11:47:22.388875Z
Bartartine,restaurant,Mount Lebanon,LB,,33.9345552,35.5912265,+961 4 543 049,,,,,,,,1,high,"RTYLR commerce OS (POS, online ordering, CRM)",osm,2026-05-04T11:47:22.388875Z
Sleep Comfort Grand Magasin,department_store,Beirut,LB,Rue El Khodr,33.8996986,35.5338621,+9611444444,,https://sleepcomfort.com/,True,,,,,3,medium,SEO audit + visibility upgrade,osm,2026-05-04T11:47:22.388875Z
نقابة المحامين في طرابلس,lawyer,North Lebanon,LB,,34.4331203,35.8340754,+9616434300,,,,,,,,1,high,Lead-gen website + Google Ads launch,osm,2026-05-04T11:47:22.388875Z
شوشي وي,restaurant,Mount Lebanon,LB,الضبية,33.9445911,35.5925748,+961 4 547 540,,,,,,,,2,high,"RTYLR commerce OS (POS, online ordering, CRM)",osm,2026-05-04T11:47:22.388875Z
Maliks,computer,Mount Lebanon,LB,,33.9248991,35.5878189,+961 4 410 442,,,,,,,,1,high,Full digital launch (brand + website + social setup),osm,2026-05-04T11:47:22.388875Z
Hanna Bou Zeid,bakery,Bekaa,LB,,33.8334223,35.9087303,+9618802903,,,,,,,,1,medium,Full digital launch (brand + website + social setup),osm,2026-05-04T11:47:22.388875Z
Keif,restaurant,Mount Lebanon,LB,,33.918872,35.5867603,+9614520003,,,,,,,,1,high,"RTYLR commerce OS (POS, online ordering, CRM)",osm,2026-05-04T11:47:22.388875Z
Porky's,butcher,Mount Lebanon,LB,,33.9916015,35.6511567,+961 9 933 323,info@porkyslebanon.com,http://www.porkyslebanon.com/,True,,https://www.instagram.com/porkyslebanon/,,,4,medium,SEO audit + visibility upgrade,osm,2026-05-04T11:47:22.388875Z
Azrak,ice_cream,Mount Lebanon,LB,"70, Azrak",33.89058,35.6677389,+9614821118,Riri@azrak.biz,http://azrak.biz,True,,,,,4,high,SEO audit + visibility upgrade,osm,2026-05-04T11:47:22.388875Z
سورجل فرن الشباك,ice_cream,Beirut,LB,طريق الشام,33.8695835,35.5252482,+9611290902,,https://www.zomato.com/beirut/surgel-furn-el-chebbak-baabda-district,False,,,,,3,high,Website rebuild + maintenance,osm,2026-05-04T11:47:22.388875Z
مسعود,pharmacy,Mount Lebanon,LB,,33.941036,35.5919307,+961 4 546 906,massoudpharmacy@outlook.com;faresmassoud@gmail.com,,,,,,,2,medium,Full digital launch (brand + website + social setup),osm,2026-05-04T11:47:22.388875Z
تصوير,photo,Beirut,LB,,33.8912398,35.5146904,+9611202996,,http://www.taswir.com/,True,,,,,2,medium,SEO audit + visibility upgrade,osm,2026-05-04T11:47:22.388875Z
Club de Campagne Ehden,hotel,North Lebanon,LB,,34.2902949,35.9475499,+961 6 560 651,info@ehdencountryclubhotel.com,http://www.ehdencountryclubhotel.com,True,,,,,3,high,SEO audit + visibility upgrade,osm,2026-05-04T11:47:22.388875Z
مدرسة القديسة ريتا,school,Mount Lebanon,LB,الضبية,33.9446192,35.5932199,+961 4 544 125,,http://ecolesainterita.edu.lb/,False,,,,,3,medium,Website rebuild + maintenance,osm,2026-05-04T11:47:22.388875Z
بتاكوم إو إم تي,mobile_phone,Mount Lebanon,LB,"1, شارع 58",33.8373384,35.5297479,+9615465966,betacomlb@hotmail.com,,,,,,,3,medium,Full digital launch (brand + website + social setup),osm,2026-05-04T11:47:22.388875Z
التحاليل المختبرية الطبية,clinic,Beirut,LB,,33.8533641,35.5184977,+9611558702,confidencelab@gmail.com,,,,,,,2,high,Lead-gen website + Google Ads launch,osm,2026-05-04T11:47:22.388875Z
مركز الضنية الطبي,clinic,Akkar,LB,"طريق طرابس - الضنية, مراح السراج",34.4178079,35.9971648,+9616240511,,,,,,,,2,high,Lead-gen website + Google Ads launch,osm,2026-05-04T11:47:22.388875Z
البنك اللبناني للتجارة,bank,Bekaa,LB,,33.8398838,35.9120549,+9618829410,,,,,,,,1,medium,Full digital launch (brand + website + social setup),osm,2026-05-04T11:47:22.388875Z
Jabal Amel Hospital - مستشفى جبل عامل,hospital,South Lebanon,LB,"76H9+87M صور - عباسية، جل البحر, Abbassiyé, Lebanon",33.2783125,35.2181875,07 740 343,,http://jabalamelhospital.com/,True,,,3.8,72,3,medium,Reputation + SEO turnaround,google_places|osm,2026-05-04T11:47:22.394171Z
بورغر هوس,restaurant,Bekaa,LB,بريتال,33.9337503,36.1527509,+961 1 071 719,,,,,,,,2,high,"RTYLR commerce OS (POS, online ordering, CRM)",osm,2026-05-04T11:47:22.388875Z
نينو ستور,toys,Beirut,LB,شارع الجزائر,33.890188,35.4914877,+9611739999,,,,,,,,2,medium,Full digital launch (brand + website + social setup),osm,2026-05-04T11:47:22.388875Z
المحامي أنطون مارون,lawyer,Beirut,LB,"شارع فؤاد شهاب, سن الفيل",33.8698963,35.5423873,+961 1 498 285,antoun.maroun@hotmail.com,,,,,,,3,high,Lead-gen website + Google Ads launch,osm,2026-05-04T11:47:22.388875Z
Randa Tabbah Jewelry,jewelry,Beirut,LB,شارع مريم جحشان,33.889671,35.5189105,+961 1 215 288,info@randatabbah.com,https://www.randatabbah.com/,True,,,,,4,high,SEO audit + visibility upgrade,osm,2026-05-04T11:47:22.388875Z
Randa Tabbah Jewelry,jewelry,Beirut,LB,شارع المخلصية,33.8940078,35.508219,+9611975030,info@randatabbah.com,https://www.randatabbah.com/,True,,,,,4,high,SEO audit + visibility upgrade,osm,2026-05-04T11:47:22.388875Z
مؤسّسة أنطوني داغر,hardware,Mount Lebanon,LB,,33.8221639,35.5308416,+9615431960,,,,,,,,1,medium,Full digital launch (brand + website + social setup),osm,2026-05-04T11:47:22.388875Z
Class Supermarket,supermarket,Mount Lebanon,LB,,33.816914,35.5324905,+9615441965,,,,,,,,1,medium,"RTYLR commerce OS (POS, online ordering, CRM)",osm,2026-05-04T11:47:22.388875Z
بقجة,furniture,Beirut,LB,,33.8939076,35.508164,+961 1 975976,info@bokja.com,http://www.bokja.com,False,,,,,3,medium,Website rebuild + maintenance,osm,2026-05-04T11:47:22.388875Z
Mario e Mario,restaurant,Beirut,LB,,33.8954736,35.5325678,+9611 444036,,,,https://facebook.com/marioemariotrattoria/,https://www.instagram.com/marioemario/,,,2,high,Website launch + capture their existing audience,osm,2026-05-04T11:47:22.388875Z
Palmyra Hotel,hotel,Baalbek-Hermel,LB,,34.0036726,36.2045786,+9618370230,,,,,,,,1,high,"RTYLR commerce OS (POS, online ordering, CRM)",osm,2026-05-04T11:47:22.388875Z
مستشفى الساحل العام,hospital,Beirut,LB,Dergham street,33.8579454,35.5036632,+961 1 858 333,info@sahelhospital.com.lb,https://www.sahelhospital.com/ar,False,,,,,4,medium,Website rebuild + maintenance,osm,2026-05-04T11:47:22.388875Z
معجنات المينا,bakery,Beirut,LB,,33.9003463,35.4894372,+9611375393,,,,,,,,1,medium,Full digital launch (brand + website + social setup),osm,2026-05-04T11:47:22.388875Z
El Argentino,convenience,Beirut,LB,,33.9000105,35.4909862,+9611368652,,,,,,,,1,medium,"RTYLR commerce OS (POS, online ordering, CRM)",osm,2026-05-04T11:47:22.388875Z
معجنات سعد,bakery,Beirut,LB,,33.9001542,35.4909811,+9611365683,,,,,,,,1,medium,Full digital launch (brand + website + social setup),osm,2026-05-04T11:47:22.388875Z
مصبغة,dry_cleaning,Beirut,LB,,33.9001517,35.49103,+9611363185,,,,,,,,1,medium,Full digital launch (brand + website + social setup),osm,2026-05-04T11:47:22.388875Z
Hotel AKL,hotel,Bekaa,LB,Berdawni Promenade,33.8529392,35.8953987,+9618820701,,,,,,,,2,high,"RTYLR commerce OS (POS, online ordering, CRM)",osm,2026-05-04T11:47:22.388875Z
هوت بايت,restaurant,Beirut,LB,"بير العبد, حارة حريك",33.8545301,35.5126448,+961 1 555 616,,,,,,,,2,high,"RTYLR commerce OS (POS, online ordering, CRM)",osm,2026-05-04T11:47:22.388875Z
Q-Hotel,hotel,Beirut,LB,شارع روما,33.8957723,35.4878964,+961 1 345 500,,,,,,,,2,high,"RTYLR commerce OS (POS, online ordering, CRM)",osm,2026-05-04T11:47:22.388875Z
وسترن يونيون,bank,Beirut,LB,,33.8714619,35.5206818,+9611391000,,,,,,,,1,medium,Full digital launch (brand + website + social setup),osm,2026-05-04T11:47:22.388875Z
مطعم عالبحر,restaurant,North Lebanon,LB,,34.1300587,35.6416186,+9619541116,,,,,,,,1,high,"RTYLR commerce OS (POS, online ordering, CRM)",osm,2026-05-04T11:47:22.388875Z
Galerie Bois Rouge,furniture,Mount Lebanon,LB,"اتستراد اميل لحود, Hazmieh",33.8501498,35.5452394,+961 5 454 802,,,,,,,,2,medium,Full digital launch (brand + website + social setup),osm,2026-05-04T11:47:22.388875Z
BMG - Bikhazi Medical Group,hospital,Beirut,LB,"Beirut, Lebanon",33.898572,35.4841872,01 742 140,,http://www.bmg.com.lb,True,,,3.9,16,3,medium,SEO audit + visibility upgrade,google_places|osm,2026-05-04T11:47:22.394171Z
خوري كلينرز,laundry,Mount Lebanon,LB,,33.8630954,35.5493986,+961 1 689 629,,https://www.khourycleaners.com/,True,,,,,2,medium,SEO audit + visibility upgrade,osm,2026-05-04T11:47:22.388875Z
مطعم العجمي,restaurant,Beirut,LB,,33.8812318,35.4809156,+9611802260,,,,,,,,1,high,"RTYLR commerce OS (POS, online ordering, CRM)",osm,2026-05-04T11:47:22.388875Z
مطعم قاووق,restaurant,Beirut,LB,,33.8940652,35.4924612,+961 1 737 058,,,,,,,,1,high,"RTYLR commerce OS (POS, online ordering, CRM)",osm,2026-05-04T11:47:22.388875Z
Pharmacie Rania,pharmacy,Mount Lebanon,LB,,33.9450101,35.5928664,+9614540511,,,,,,,,1,medium,Full digital launch (brand + website + social setup),osm,2026-05-04T11:47:22.388875Z
Al Baba Sweets,restaurant,Beirut,LB,,33.8717062,35.5131536,+961 1 399 500,,,,,,,,1,high,"RTYLR commerce OS (POS, online ordering, CRM)",osm,2026-05-04T11:47:22.388875Z
CTS travel & Tourism,travel_agency,Beirut,LB,,33.8955124,35.4911775,+9611354333,,https://www.cts.com.lb/,True,,,,,2,medium,SEO audit + visibility upgrade,osm,2026-05-04T11:47:22.388875Z
Worldwide Travel and Tourism,travel_agency,Beirut,LB,"ndjos, Bayrut, Lebanon",33.893791300000004,35.5017767,01 366 505,,http://www.worldwidetravel-lb.com/,True,,,4.5,15,3,medium,SEO audit + visibility upgrade,google_places|osm,2026-05-04T11:47:22.394171Z
Newtown Specialty Coffee Roasters,coffee_shop,North Lebanon,LB,Mina، Lebanon,34.4433636,35.826065,06 225 002,,http://www.newtowncoffee.com/,True,,,4.5,409,3,high,"RTYLR commerce OS (POS, online ordering, CRM)",google_places|osm,2026-05-04T11:47:22.394171Z
دُكَّان ماركت,supermarket,North Lebanon,LB,,34.4440008,35.8256774,+9616220055,,,,,,,,1,medium,"RTYLR commerce OS (POS, online ordering, CRM)",osm,2026-05-04T11:47:22.388875Z
فريحة ميديا,advertising_agency,Beirut,LB,"شارع ألفريد نقاش, بيروت",33.8900113,35.5206627,+961 1 201 740,info@frayhamedia.com,http://www.frayhamedia.com,True,,,,,4,high,SEO audit + visibility upgrade,osm,2026-05-04T11:47:22.388875Z
Maroun’s Gifts,gift,Beirut,LB,,33.8972547,35.5262072,+9611565235,,,,,,,,1,medium,Full digital launch (brand + website + social setup),osm,2026-05-04T11:47:22.388875Z
برغر وفلافل الخضر,fast_food,Beirut,LB,,33.897432,35.5335638,+9611442850,,,,,,,,1,high,"RTYLR commerce OS (POS, online ordering, CRM)",osm,2026-05-04T11:47:22.388875Z
قهوة الروضة,restaurant,Beirut,LB,,33.8954232,35.4687138,+9611743348,,,,,,,,1,high,"RTYLR commerce OS (POS, online ordering, CRM)",osm,2026-05-04T11:47:22.388875Z
Swiss Butter,restaurant,Mount Lebanon,LB,,33.9062265,35.579941,+961 4 712 571,,,,,,,,1,high,"RTYLR commerce OS (POS, online ordering, CRM)",osm,2026-05-04T11:47:22.388875Z
Wooden Bakery,bakery,North Lebanon,LB,,34.3223923,35.7374471,+9616542898,,,,,,,,1,medium,Full digital launch (brand + website + social setup),osm,2026-05-04T11:47:22.388875Z
باش منقوش,bakery,Beirut,LB,,33.885206,35.4945969,+9611304527,,,,,,,,1,medium,Full digital launch (brand + website + social setup),osm,2026-05-04T11:47:22.388875Z
ديليس,butcher,Beirut,LB,,33.8852014,35.4946686,+9611312568,,,,,,,,1,medium,Full digital launch (brand + website + social setup),osm,2026-05-04T11:47:22.388875Z
Gigieffe,clothes,Beirut,LB,Fouad Shehab Street,33.8751773,35.5411772,+961 1 482 278,,,,,,,,2,high,Full digital launch (brand + website + social setup),osm,2026-05-04T11:47:22.388875Z
محمصة الرفاعي,convenience,Beirut,LB,Fouad Shehab Street,33.8701108,35.5418662,+9611495779,,https://store.alrifai.com,True,,,,,3,medium,SEO audit + visibility upgrade,osm,2026-05-04T11:47:22.388875Z
صيدلية خوري,pharmacy,Beirut,LB,سن الفيل,33.8694913,35.5426102,+9611490034,,,,,,,,2,medium,Full digital launch (brand + website + social setup),osm,2026-05-04T11:47:22.388875Z
بنك بيروت,bank,Beirut,LB,"شارع فؤاد شهاب, سن الفيل",33.8721561,35.5415018,+961 5 955 262,,https://www.bankofbeirut.com,True,,,,,3,medium,SEO audit + visibility upgrade,osm,2026-05-04T11:47:22.388875Z
Byblos Bank,bank,Beirut,LB,Fouad Shehab Street,33.8723424,35.5414423,+9611485241,,http://www.byblosbank.com.lb,True,,,,,3,medium,SEO audit + visibility upgrade,osm,2026-05-04T11:47:22.388875Z
جورج نصر,department_store,Beirut,LB,"62, شارع 111, الدكوانة",33.877589,35.5411033,+9611482462,,http://www.georgesnassr.com,True,,,,,3,medium,SEO audit + visibility upgrade,osm,2026-05-04T11:47:22.388875Z
بوظة بشير,ice_cream,Beirut,LB,"1 طريق, سنّ الفيل",33.8747824,35.5408333,+9611497110,,https://www.bachir.com,True,,,,,3,high,SEO audit + visibility upgrade,osm,2026-05-04T11:47:22.388875Z
Pistachio,fast_food,North Lebanon,LB,شارع رشيد كرامة,34.445172,35.8222349,+9616222209,,,,,,,,2,high,"RTYLR commerce OS (POS, online ordering, CRM)",osm,2026-05-04T11:47:22.388875Z
مركز خلدة لتحليل الطبية,hospital,Mount Lebanon,LB,Autoroute Maritime,33.7762102,35.4721157,+961 5 801 971,,,,,,,,2,medium,Full digital launch (brand + website + social setup),osm,2026-05-04T11:47:22.388875Z
مركز الدامور الطبي,clinic,Mount Lebanon,LB,الدامور,33.7286373,35.4546761,+9615603603,,http://damour-mc.com,True,,,,,3,high,SEO audit + visibility upgrade,osm,2026-05-04T11:47:22.388875Z
مقهى المندلون,restaurant,Mount Lebanon,LB,,33.9390658,35.5914226,+9614545411,,,,,,,,1,high,"RTYLR commerce OS (POS, online ordering, CRM)",osm,2026-05-04T11:47:22.388875Z
الجامعة الأرمنيّة المتحدة,college,Mount Lebanon,LB,برج حموﺪ‎‎,33.8870254,35.5480273,+961 1 241 541;+961 1 241 641,uac@armprelacylb.org,,,,,,,3,medium,Full digital launch (brand + website + social setup),osm,2026-05-04T11:47:22.388875Z
مستشفى البرج,hospital,Mount Lebanon,LB,Osman Street,33.8427333,35.5093247,+9611474718;+9611474719,,,,,,,,2,medium,Full digital launch (brand + website + social setup),osm,2026-05-04T11:47:22.388875Z
President Hotel,hotel,Mount Lebanon,LB,jounieh,34.0001067,35.6456894,+9619935135,,,,,,,,2,high,"RTYLR commerce OS (POS, online ordering, CRM)",osm,2026-05-04T11:47:22.388875Z
Margherita,restaurant,Mount Lebanon,LB,,33.986053,35.6345658,+961 9 830 816,,https://www.pizzeriamargherita.com/,True,,,,,2,high,SEO audit + visibility upgrade,osm,2026-05-04T11:47:22.388875Z
Banque fédérale du Liban,bank,South Lebanon,LB,شارع صوراتي,33.8972694,35.4839563,+9611348507;+9611348509;+9611348509;,,,,,,,,2,medium,Full digital launch (brand + website + social setup),osm,2026-05-04T11:47:22.388875Z
Microcity Computer Shop,computer,Beirut,LB,,33.8664176,35.4871994,+9611835478,,https://gomicrocity.com,True,,,,,2,high,SEO audit + visibility upgrade,osm,2026-05-04T11:47:22.388875Z
مندي حضرموت,restaurant,Beirut,LB,,33.8883238,35.4737799,+9611802233,,,,,,,,1,high,"RTYLR commerce OS (POS, online ordering, CRM)",osm,2026-05-04T11:47:22.388875Z
Salon Rachid For Men,beauty,Beirut,LB,Hamad,33.8717431,35.5042846,+9611651313,,,,,,,,2,high,Full digital launch (brand + website + social setup),osm,2026-05-04T11:47:22.388875Z
Dprime Solutions,advertising_agency,Mount Lebanon,LB,"Mirna Chalouhi Highway, بوشرية",33.8888922,35.5542793,+9611255420,info@dprime-solutions.com,https://dprime-solutions.com/,False,,,,,4,high,Website rebuild + maintenance,osm,2026-05-04T11:47:22.388875Z
Lagace Hotel,hotel,Mount Lebanon,LB,,33.9523557,35.6212937,+9619212975,,,,,,,,1,high,"RTYLR commerce OS (POS, online ordering, CRM)",osm,2026-05-04T11:47:22.388875Z
كوزموس للسياحة والسفر,travel_agency,Beirut,LB,جادة صائب سلام,33.8801593,35.4922366,+9611300153,cosmos.travel@hotmail.com,,,,,,,3,medium,Lead-gen website + Google Ads launch,osm,2026-05-04T11:47:22.388875Z
ampm,convenience,Beirut,LB,"Achrafieh-Charles Malek Avenue, Beyrouth",33.8920996,35.5194517,+961 1 320 140,,https://www.facebook.com/pg/ampmmarketbeirut/posts/,True,,,,,3,medium,SEO audit + visibility upgrade,osm,2026-05-04T11:47:22.388875Z
Le Lycee National,school,Mount Lebanon,LB,,33.79721,35.4926084,+9615805500,,http://le-lycee-national.edu.lb,True,,,,,2,medium,SEO audit + visibility upgrade,osm,2026-05-04T11:47:22.388875Z
Cube 3DP,computer,Mount Lebanon,LB,,33.860424,35.578392,+9614535745,,https://cube3dp.com,True,,,,,2,high,SEO audit + visibility upgrade,osm,2026-05-04T11:47:22.388875Z
سوي,restaurant,Mount Lebanon,LB,طريق برمانا الرئيسية,33.862721,35.5952574,+961 4 872 187,,,,,,,,2,high,"RTYLR commerce OS (POS, online ordering, CRM)",osm,2026-05-04T11:47:22.388875Z
Escagrot,bakery,Beirut,LB,,33.9003839,35.4908778,+9611363213,,,,,,,,1,medium,Full digital launch (brand + website + social setup),osm,2026-05-04T11:47:22.388875Z
مطعم أهلا وسهلا فول وحمّص,restaurant,Beirut,LB,Beyrouth,33.9003738,35.4910038,+9611363182,,,,,,,,2,high,"RTYLR commerce OS (POS, online ordering, CRM)",osm,2026-05-04T11:47:22.388875Z
"Hajj Medical Center-Medical & Dental Clinics Naccache - Dr. Marcel Hajj, Dr. Gregory Hage (Allergy-Diet-Fat Free-Exosome)",medical_center,Mount Lebanon,LB,"Naccache, Green Zone A, bldg, Ground floor, 71, النقاش، Lebanon",33.9285959,35.5966253,04 520 065,,http://linktr.ee/hajj.medical.center,True,,,5,162,3,high,Discovery call - scope the right service,google_places|osm,2026-05-04T11:47:22.394171Z
Fidar Beach House,restaurant,Mount Lebanon,LB,,34.0978128,35.6510147,+9619477224,fidar.beach.house@gmail.com,,,,,,,2,high,"RTYLR commerce OS (POS, online ordering, CRM)",osm,2026-05-04T11:47:22.388875Z
مستوصف ابن نفيس- البسطة,clinic,Beirut,LB,"شارع صالح بن يحي, البسطة الفوقا",33.8858333,35.5043089,+961 1 664 242,ebnnafis.polyclinic@gmail.com,,,,,,,3,high,Lead-gen website + Google Ads launch,osm,2026-05-04T11:47:22.388875Z
جمعية الأمل والعطاء الخيرية,clinic,Mount Lebanon,LB,برجا,33.6388946,35.4276132,+9617921080,amalataa@outlook.com,https://www.amalataa.org/,True,https://www.facebook.com/pg/Amal.Ataa.barja,,,,5,high,SEO audit + visibility upgrade,osm,2026-05-04T11:47:22.388875Z
Pharmacie Chebbo,pharmacy,Mount Lebanon,LB,برجا,33.6388997,35.4273529,+9617623532,,,,,,,,2,medium,Full digital launch (brand + website + social setup),osm,2026-05-04T11:47:22.388875Z
مركز كترمايا الصحي,doctors,Mount Lebanon,LB,كترمايا,33.6140957,35.4546778,+9617971984,,,,,,,,2,high,Lead-gen website + Google Ads launch,osm,2026-05-04T11:47:22.388875Z
مستوصف الدبية الحكومي,clinic,Mount Lebanon,LB,الدبية,33.6699859,35.4855178,+9617985019,,,,,,,,2,high,Lead-gen website + Google Ads launch,osm,2026-05-04T11:47:22.388875Z
مستوصف عماطور الخيري,clinic,Mount Lebanon,LB,,33.6339235,35.6083179,+9615311237,,,,,,,,1,high,Lead-gen website + Google Ads launch,osm,2026-05-04T11:47:22.388875Z
أسواق سوبرماركت رمال,supermarket,Beirut,LB,,33.8676088,35.5159935,+9611290101,,,,,,,,1,medium,"RTYLR commerce OS (POS, online ordering, CRM)",osm,2026-05-04T11:47:22.388875Z
Locanda Corsini,restaurant,Mount Lebanon,LB,,33.9082085,35.6801,+961 4 982 689,,,,,,,,1,high,"RTYLR commerce OS (POS, online ordering, CRM)",osm,2026-05-04T11:47:22.388875Z
Rouhana Jewelry,jewelry,Mount Lebanon,LB,طريق انطلياس بكفيّا,33.9203196,35.6297594,+961 4 927 055,info@rouhanajewellery.com,https://www.rouhana.co/,False,,,,,4,high,Website rebuild + maintenance,osm,2026-05-04T11:47:22.388875Z
بإدارة الصيدلية رنا حسن حاوي,pharmacy,South Lebanon,LB,,33.3397471,35.3729737,+9617540423,,,,,,,,1,medium,Full digital launch (brand + website + social setup),osm,2026-05-04T11:47:22.388875Z
Institute Joujou,beauty,Beirut,LB,,33.8697445,35.5174147,+9611390249,,,,,,,,1,high,Full digital launch (brand + website + social setup),osm,2026-05-04T11:47:22.388875Z
مؤسسة إلمو,hardware,Beirut,LB,,33.8695314,35.5181833,+9611381767,,,,,,,,1,medium,Full digital launch (brand + website + social setup),osm,2026-05-04T11:47:22.388875Z
فرن مناقيش نيقولا,bakery,Beirut,LB,,33.8703469,35.5171277,+9611385954,,,,,,,,1,medium,Full digital launch (brand + website + social setup),osm,2026-05-04T11:47:22.388875Z
فرن الوردة البيضاء,bakery,Beirut,LB,,33.8703256,35.5228158,+961 1 286 367,,,,,,,,1,medium,Full digital launch (brand + website + social setup),osm,2026-05-04T11:47:22.388875Z
زهر الليمون,convenience,Beirut,LB,,33.8940606,35.4925564,+9611355223,,,,,,,,1,medium,"RTYLR commerce OS (POS, online ordering, CRM)",osm,2026-05-04T11:47:22.388875Z
تعاونية سان تيريز,supermarket,Beirut,LB,,33.8707705,35.5202901,+9611281870;+9611280881,,,,,,,,1,medium,"RTYLR commerce OS (POS, online ordering, CRM)",osm,2026-05-04T11:47:22.388875Z
Taanayel General Hospital,hospital,Bekaa,LB,,33.7941808,35.8777565,+9618545299,,,,,,,,1,medium,Full digital launch (brand + website + social setup),osm,2026-05-04T11:47:22.388875Z
Kassab Hospital,hospital,South Lebanon,LB,,33.568745,35.3916326,+9617723900;+9617723700,info@kassabhospital.com,https://kassabhospital.com,True,,,,,3,medium,SEO audit + visibility upgrade,osm,2026-05-04T11:47:22.388875Z
مستشفى الخير,hospital,North Lebanon,LB,,34.482505,35.9405413,+9616461444,,,,,,,,1,medium,Full digital launch (brand + website + social setup),osm,2026-05-04T11:47:22.388875Z
مستشفى الحنان,hospital,North Lebanon,LB,,34.4434639,35.8342695,+961 6 200 527,,,,,,,,1,medium,Full digital launch (brand + website + social setup),osm,2026-05-04T11:47:22.388875Z
Orange Nassau Governmental Hospital,hospital,North Lebanon,LB,,34.4425526,35.8384055,+9616428200,info@ongh.org,,,,,,,2,medium,Full digital launch (brand + website + social setup),osm,2026-05-04T11:47:22.388875Z
Batrouniyat,restaurant,North Lebanon,LB,Dawra Street,34.2468973,35.661628,+9616744510,info@batrouniyat.org,http://www.batrouniyat.org,True,,,,,4,high,SEO audit + visibility upgrade,osm,2026-05-04T11:47:22.388875Z
Karantina Governmental Hospital,hospital,Beirut,LB,,33.9025367,35.5299998,+9611442110,,,,https://www.facebook.com/pages/category/Local-Business/Hospital-beirut-governmental-karantina-569737699791591,,,,2,medium,Website launch + capture their existing audience,osm,2026-05-04T11:47:22.388875Z
Tatari Hospital,hospital,Baalbek-Hermel,LB,,34.0107926,36.2057555,+9618370799,,,,https://www.facebook.com/Top.hospital80,,,,2,medium,Website launch + capture their existing audience,osm,2026-05-04T11:47:22.388875Z
Medical 2000 Hospital,hospital,Mount Lebanon,LB,,33.8031637,35.5172941,+9615432525,,,,,,,,1,medium,Full digital launch (brand + website + social setup),osm,2026-05-04T11:47:22.388875Z
4 ways,restaurant,South Lebanon,LB,"toul - dweir main road, nabatieh, toul",33.3846844,35.4442651,+9617765095,,,,,,,,2,high,"RTYLR commerce OS (POS, online ordering, CRM)",osm,2026-05-04T11:47:22.388875Z
Sushi Lovers,restaurant,Beirut,LB,شارع روزفلت,33.895081,35.4855733,+9611354040,,,,,,,,2,high,"RTYLR commerce OS (POS, online ordering, CRM)",osm,2026-05-04T11:47:22.388875Z
Anthony's,restaurant,Mount Lebanon,LB,,34.0935965,35.6513067,+9619479189,,,,,,,,1,high,"RTYLR commerce OS (POS, online ordering, CRM)",osm,2026-05-04T11:47:22.388875Z
Al Halabi,restaurant,Mount Lebanon,LB,طريق ضبية القديم,33.9168444,35.5900819,+961 4 523 555,,,,,,,,2,high,"RTYLR commerce OS (POS, online ordering, CRM)",osm,2026-05-04T11:47:22.388875Z
Parfumerie Paloma,perfumery,Beirut,LB,"new trad street, برج حموﺪ",33.8895788,35.5421225,+9611249951,,,,,,,,2,high,Full digital launch (brand + website + social setup),osm,2026-05-04T11:47:22.388875Z
ماركت شادي مسيح,supermarket,North Lebanon,LB,,34.3586111,35.7328103,+9616543886,,,,,,,,1,medium,"RTYLR commerce OS (POS, online ordering, CRM)",osm,2026-05-04T11:47:22.388875Z
عيادة الدكتور بو حبيب,clinic,Mount Lebanon,LB,شارع 12,33.9114217,35.5842732,+961 4 416 979,neurologist@inbox.com,http://www.bouhabib.narod.ru/,True,https://www.facebook.com/bouhabibclinic/,,,,5,high,SEO audit + visibility upgrade,osm,2026-05-04T11:47:22.388875Z
The Parisian Hotel,hotel,Beirut,LB,,33.9000978,35.4919177,+9611361999,info@theparisianhotel.com,https://www.theparisianhotel.com,True,,,,,3,high,SEO audit + visibility upgrade,osm,2026-05-04T11:47:22.388875Z
Mum & I,restaurant,Beirut,LB,,33.8783448,35.5159861,+9611425650,,,,https://www.facebook.com/MumAndI,,,,2,high,Website launch + capture their existing audience,osm,2026-05-04T11:47:22.388875Z
Café عصير صقر,cafe,Beirut,LB,"شارع بشارة الخوري, بيروت",33.8850311,35.506964,+961 1 632 010,,,,,,,,2,high,"RTYLR commerce OS (POS, online ordering, CRM)",osm,2026-05-04T11:47:22.388875Z
Sushi Star,restaurant,Mount Lebanon,LB,,33.8594178,35.558779,+9611683689,,,,,,,,1,high,"RTYLR commerce OS (POS, online ordering, CRM)",osm,2026-05-04T11:47:22.388875Z
future - المستقبل,supermarket,Mount Lebanon,LB,,33.7840271,35.5561433,+9615273558,,,,,,,,1,medium,"RTYLR commerce OS (POS, online ordering, CRM)",osm,2026-05-04T11:47:22.388875Z
19 Restaurant,restaurant,Mount Lebanon,LB,,33.7845928,35.4764504,+9615807800,,,,,,,,1,high,"RTYLR commerce OS (POS, online ordering, CRM)",osm,2026-05-04T11:47:22.388875Z
The J Hotel & Spa,hotel,Beirut,LB,,33.8955401,35.4812196,+9611344626,,,,,,,,1,high,"RTYLR commerce OS (POS, online ordering, CRM)",osm,2026-05-04T11:47:22.388875Z
Monte Cassino,hotel,Mount Lebanon,LB,"Casino Du Liban Street Jounieh، 2J7Q+JHR, Kfar Yassine, Lebanon",34.0140485,35.638965899999995,09 852 600,,,,,,4.5,179,2,high,"RTYLR commerce OS (POS, online ordering, CRM)",google_places|osm,2026-05-04T11:47:22.394171Z
Le Montagnou,restaurant,Bekaa,LB,,33.9936095,35.831913,+961 9 341 441,,http://www.montagnou.com/,False,https://www.facebook.com/LeMontagnou/,,,,3,high,Website rebuild + maintenance,osm,2026-05-04T11:47:22.388875Z
Librairie Antoine Hamra,books,Beirut,LB,,33.8955567,35.4821392,+9611341470,,https://www.antoineonline.com/,True,,,,,2,medium,SEO audit + visibility upgrade,osm,2026-05-04T11:47:22.388875Z
Ka3kaya,restaurant,Beirut,LB,,33.8962349,35.4820078,+961 1 354 555,,https://www.ka3kaya.com/,True,,,,,2,high,SEO audit + visibility upgrade,osm,2026-05-04T11:47:22.388875Z
Al Irfan Hospital,hospital,Mount Lebanon,LB,,33.6752712,35.5922749,+9615501678,,,,,,,,1,medium,Full digital launch (brand + website + social setup),osm,2026-05-04T11:47:22.388875Z
الجمية اللبنانية لرعاية المعوقين,clinic,South Lebanon,LB,,33.4327742,35.3092739,+961 7 441 010,lwah@lwah.org.lb,,,,,,,2,high,Lead-gen website + Google Ads launch,osm,2026-05-04T11:47:22.388875Z
فندق البحار,hotel,Mount Lebanon,LB,,34.0290095,35.6257321,+9619855858,,,,,,,,1,high,"RTYLR commerce OS (POS, online ordering, CRM)",osm,2026-05-04T11:47:22.388875Z
Joy Venue,events_venue,Mount Lebanon,LB,,34.097262,35.6547602,+9619479498,,,,,https://www.instagram.com/joyvenue/,,,2,medium,Website launch + capture their existing audience,osm,2026-05-04T11:47:22.388875Z
Chateau Muzar,wine,Mount Lebanon,LB,,34.0163495,35.6699185,+961 9 925 127,,https://www.chateaumusar.com/,True,,,,,2,medium,SEO audit + visibility upgrade,osm,2026-05-04T11:47:22.388875Z
Gelato Show,ice_cream,Mount Lebanon,LB,,33.9887408,35.6413694,+9619642250,,,,,,,,1,high,"RTYLR commerce OS (POS, online ordering, CRM)",osm,2026-05-04T11:47:22.388875Z
جمعية امبرايس,clinic,Beirut,LB,شارع ربيز,33.8960082,35.4852403,+9611341941,,,,,,,,2,high,Lead-gen website + Google Ads launch,osm,2026-05-04T11:47:22.388875Z
Al Hamshari Hospital,hospital,South Lebanon,LB,,33.5476708,35.3862615,+9617724881,,,,,,,,1,medium,Full digital launch (brand + website + social setup),osm,2026-05-04T11:47:22.388875Z
Pepe Fishermans Club,restaurant,North Lebanon,LB,,34.1216154,35.6440741,+961 9 540 213,,,,,,,,1,high,"RTYLR commerce OS (POS, online ordering, CRM)",osm,2026-05-04T11:47:22.388875Z
Nahr Al Janna,hotel,Mount Lebanon,LB,,33.9459815,35.6152664,+961 4 930 200,,,,,,,,1,high,"RTYLR commerce OS (POS, online ordering, CRM)",osm,2026-05-04T11:47:22.388875Z
Hôpital Haroun,hospital,Mount Lebanon,LB,,33.9006645,35.5717805,+961 1 897 300;+961 1 897 301;+961 1 897 302;+961 1 897 303;+961 1 897 304,,,,https://m.facebook.com/profile.php?id=376596812392902,,,,2,medium,Website launch + capture their existing audience,osm,2026-05-04T11:47:22.388875Z
Loris,restaurant,Beirut,LB,شارع باستور,33.8959295,35.5158789,+9611567568,,https://www.loris.restaurant/,False,https://m.facebook.com/Loris.Restaurant/,,,,4,high,Website rebuild + maintenance,osm,2026-05-04T11:47:22.388875Z
Al Hayat Hospital,hospital,Beirut,LB,"Al Hayat Hospital Street, Lebanon",33.8578028,35.5252089,01 546 200,,https://www.alhayat-hospital.com/,True,https://www.facebook.com/AL-Hayat-Hospital-557872267703366/,,3.8,47,4,medium,Reputation + SEO turnaround,google_places|osm,2026-05-04T11:47:22.394171Z
Dr. Haitham AlFakih Dental Clinic,dentist,Mount Lebanon,LB,,33.8121453,35.6091416,+9615551725,drfakih@hotmail.com,,,,,,,2,high,Lead-gen website + Google Ads launch,osm,2026-05-04T11:47:22.388875Z
فندق باي ان,hotel,Mount Lebanon,LB,طريق البحر,34.0069342,35.6467006,+9619854212,,,,,,,,2,high,"RTYLR commerce OS (POS, online ordering, CRM)",osm,2026-05-04T11:47:22.388875Z
Clinique AS Ahdab,clinic,North Lebanon,LB,,34.4405531,35.8352231,+9616441442,,,,,,,,1,high,Lead-gen website + Google Ads launch,osm,2026-05-04T11:47:22.388875Z
Cedarland Hotel,hotel,Beirut,LB,,33.8973084,35.4839301,+9611340233;+9611340234,,,,,,,,1,high,"RTYLR commerce OS (POS, online ordering, CRM)",osm,2026-05-04T11:47:22.388875Z
Mashhour,restaurant,Bekaa,LB,,33.5217675,35.8265924,+9618590199,,,,,,,,1,high,"RTYLR commerce OS (POS, online ordering, CRM)",osm,2026-05-04T11:47:22.388875Z
SHOO clean,laundry,Mount Lebanon,LB,,33.9256613,35.6366255,+9614910647,,,,,,,,1,medium,Full digital launch (brand + website + social setup),osm,2026-05-04T11:47:22.388875Z
رصيف بيروت,restaurant,Beirut,LB,"شارع جبر ضومط, بيروت",33.8973745,35.480822,+9611340081,,,,,,,,2,high,"RTYLR commerce OS (POS, online ordering, CRM)",osm,2026-05-04T11:47:22.388875Z
Restaurant Ya Hala,fast_food,Akkar,LB,,34.393133,36.3852545,+961 8 200 375,,,,,,,,1,high,"RTYLR commerce OS (POS, online ordering, CRM)",osm,2026-05-04T11:47:22.388875Z
Ni,restaurant,Mount Lebanon,LB,,33.9268789,35.5878772,+9614520772,,,,,,,,1,high,"RTYLR commerce OS (POS, online ordering, CRM)",osm,2026-05-04T11:47:22.388875Z
وسليز,general,Mount Lebanon,LB,,33.9068878,35.5799338,+9614714094,,,,,,,,1,medium,Full digital launch (brand + website + social setup),osm,2026-05-04T11:47:22.388875Z
Tawlet Beit El Qamar,restaurant,Mount Lebanon,LB,,33.7048273,35.5779384,+9615511722,info@beitelqamar.com,,,,,,,2,high,"RTYLR commerce OS (POS, online ordering, CRM)",osm,2026-05-04T11:47:22.388875Z
Hotel Le Noble,hotel,Mount Lebanon,LB,,33.946732,35.5979426,+961 4 542 750,,https://hotellenoble.com/,False,,,,,2,high,Website rebuild + maintenance,osm,2026-05-04T11:47:22.388875Z
BHive Café,coffee_shop,Beirut,LB,"Mahatma Ghandi, Hamra 1103, Lebanon",33.895172599999995,35.4779702,01 355 351,,http://www.thebhive.io/,True,,,4.4,529,3,high,"RTYLR commerce OS (POS, online ordering, CRM)",google_places|osm,2026-05-04T11:47:22.394171Z
مطعم البندقية الإيطالي,restaurant,Beirut,LB,"شارع 8-05, بيروت",33.8713028,35.5359178,+961 1 516 540,,,,https://www.facebook.com/VeneziaRistoranteItaliano,https://www.instagram.com/veneziaristoranteitaliano/,,,3,high,Website launch + capture their existing audience,osm,2026-05-04T11:47:22.388875Z
Aphrodite Hotel,hotel,Mount Lebanon,LB,,34.018783,35.6315951,+961 9 850 400,,,,https://www.facebook.com/aphrodite1.hotel/,,,,2,high,Website launch + capture their existing audience,osm,2026-05-04T11:47:22.388875Z
Romance Hotel,hotel,Mount Lebanon,LB,,34.0194722,35.6318405,+961 9 855 258,,,,,https://www.instagram.com/romancehotellb/,,,2,high,Website launch + capture their existing audience,osm,2026-05-04T11:47:22.388875Z
Grand Gabriel Hotel,hotel,Mount Lebanon,LB,,33.9663436,35.6094226,+9619215222,,,,,,,,1,high,"RTYLR commerce OS (POS, online ordering, CRM)",osm,2026-05-04T11:47:22.388875Z
Ana Beirut,restaurant,Mount Lebanon,LB,,33.9186162,35.586471,+9614520280,,,,,,,,1,high,"RTYLR commerce OS (POS, online ordering, CRM)",osm,2026-05-04T11:47:22.388875Z
Le Cerfvolant Beach Restaurant,restaurant,Mount Lebanon,LB,,34.0590867,35.6428933,+96129445679,,,,,,,,1,high,"RTYLR commerce OS (POS, online ordering, CRM)",osm,2026-05-04T11:47:22.388875Z
AM Bank,bank,Mount Lebanon,LB,,33.9172084,35.5843654,+9614444590,,,,,,,,1,medium,Full digital launch (brand + website + social setup),osm,2026-05-04T11:47:22.388875Z
Garage Riad El Hayek,car_repair,Mount Lebanon,LB,"Aboujaoude industrial center, Naher El Mot",33.8934328,35.5756791,+9611890661,,https://garageriadhayek.wordpress.com/,True,,,,,3,medium,SEO audit + visibility upgrade,osm,2026-05-04T11:47:22.388875Z
Billy Boyz,restaurant,Mount Lebanon,LB,,33.9558487,35.6107372,+961 9 222 062,,,,,,,,1,high,"RTYLR commerce OS (POS, online ordering, CRM)",osm,2026-05-04T11:47:22.388875Z
iSTYLE,computer,Beirut,LB,,33.8614187,35.5292788,+961 1 283 989,,,,,,,,1,high,Full digital launch (brand + website + social setup),osm,2026-05-04T11:47:22.388875Z
Patchi,chocolate,Mount Lebanon,LB,,34.0122961,35.6483938,+961 9 855 925,,,,,,,,1,medium,Full digital launch (brand + website + social setup),osm,2026-05-04T11:47:22.388875Z
Sinno Trading Co SAL,hardware,Beirut,LB,,33.8665744,35.4882994,+9611821821,,,,,,,,1,medium,Full digital launch (brand + website + social setup),osm,2026-05-04T11:47:22.388875Z
لا بلازير - حلويات,confectionery,Mount Lebanon,LB,Saqiet El-Misk - Bikfaya - Rue Principale,33.9185313,35.6771851,+961 4 981 423,,,,,,,,2,medium,Full digital launch (brand + website + social setup),osm,2026-05-04T11:47:22.388875Z
Das Küche,restaurant,Beirut,LB,,33.8971117,35.5245777,+961 1 442 887,,https://daskuche.me/,True,,,,,2,high,SEO audit + visibility upgrade,osm,2026-05-04T11:47:22.388875Z
Delight,restaurant,Mount Lebanon,LB,Qalaa,33.8382953,35.7333625,+9615530577,,https://pizzadelight-hammana.business.site/?utm_source=gmb&utm_medium=referral,True,,,,,3,high,SEO audit + visibility upgrade,osm,2026-05-04T11:47:22.388875Z
Pertutti,restaurant,Mount Lebanon,LB,,33.853203,35.5452282,+961 5 457 000,,,,,,,,1,high,"RTYLR commerce OS (POS, online ordering, CRM)",osm,2026-05-04T11:47:22.388875Z
Mr. International,restaurant,Beirut,LB,,33.8747538,35.5395521,+9611488381,,,,,,,,1,high,"RTYLR commerce OS (POS, online ordering, CRM)",osm,2026-05-04T11:47:22.388875Z
Pet Palace,pet_grooming,Beirut,LB,شارع جورج حداد,33.8927332,35.5099196,+961 1 218 245,,,,,,,,2,medium,Full digital launch (brand + website + social setup),osm,2026-05-04T11:47:22.388875Z
عمر الفحل,doityourself,Beirut,LB,Rue Imam Moussa Sader,33.8599721,35.4865854,+9611852134,,,,,,,,2,medium,Full digital launch (brand + website + social setup),osm,2026-05-04T11:47:22.388875Z
Colortek Paints & Wallpapers,interior_decoration,Mount Lebanon,LB,شارع حنكاش الجديد,33.89225,35.5573581,+9611242812,,https://www.colortek.eu/,True,,,,,3,medium,SEO audit + visibility upgrade,osm,2026-05-04T11:47:22.388875Z
The Bros,fast_food,Beirut,LB,شارع أرمينيا,33.8972754,35.5271384,+9611570297,,,,thebroslb,,,,3,high,Website launch + capture their existing audience,osm,2026-05-04T11:47:22.388875Z
صيدلية سان جورج,pharmacy,Beirut,LB,شارع مستشفى الروم,33.8945438,35.5247962,+9611582997,,,,,,,,2,medium,Full digital launch (brand + website + social setup),osm,2026-05-04T11:47:22.388875Z
Nextcare,insurance,Beirut,LB,,33.8807239,35.5386498,+961 1 504 000,lebanon@nextcarehealth.com,https://www.nextcarehealth.com,True,,,,,3,medium,SEO audit + visibility upgrade,osm,2026-05-04T11:47:22.388875Z
Seven Moons School,school,Mount Lebanon,LB,,33.843026,35.5096797,+9611474662,,,,,,,,1,medium,Full digital launch (brand + website + social setup),osm,2026-05-04T11:47:22.388875Z
Albayan High School,school,Mount Lebanon,LB,,33.8446614,35.5173118,+961 1 472 158,,,,,,,,1,medium,Full digital launch (brand + website + social setup),osm,2026-05-04T11:47:22.388875Z
مشاويش,restaurant,Beirut,LB,شارع ألكسندر فليمنغ,33.8974146,35.5250774,+9611449390,,,,,mashawish.grill,,,3,high,Website launch + capture their existing audience,osm,2026-05-04T11:47:22.388875Z
Frunch Eatery - Mar Mikhael,fast_food,Beirut,LB,شارع أرمينيا,33.8974472,35.5270752,+9611403303,,http://frunch-eatery.com,True,,,,,3,high,SEO audit + visibility upgrade,osm,2026-05-04T11:47:22.388875Z
Upper Room,restaurant,Mount Lebanon,LB,طريق انطلياس بكفيّا,33.9156251,35.591961,+9613110200,,,,upperroomleb,upperroomlrbanon,,,3,high,Website launch + capture their existing audience,osm,2026-05-04T11:47:22.388875Z
Keys'n Chords Music Academy,musical_instrument,Beirut,LB,شارع تامر ملاط,33.8848372,35.4853828,+961 1 795 914,,https://keysncords.com,True,,,,,3,medium,SEO audit + visibility upgrade,osm,2026-05-04T11:47:22.388875Z
صيدلية شعار,pharmacy,Beirut,LB,شارع بشارة الخوري,33.8858922,35.506538,+9611663221,,,,,,,,2,medium,Full digital launch (brand + website + social setup),osm,2026-05-04T11:47:22.388875Z
Brush Art Paints,doityourself,Beirut,LB,شارع دار الفتوى,33.8848323,35.4902253,+961 1 706 773,,https://www.brushart.co/,True,,,,,3,medium,SEO audit + visibility upgrade,osm,2026-05-04T11:47:22.388875Z
Tony,restaurant,Mount Lebanon,LB,,33.9128717,35.6770346,+961 4 985 959,,,,,,,,1,high,"RTYLR commerce OS (POS, online ordering, CRM)",osm,2026-05-04T11:47:22.388875Z
فرن صفوان الأصلي,bakery,Beirut,LB,طريق السريع بيروت-صيدا,33.8459623,35.4852017,+9611450143,,,,,,,,2,medium,Full digital launch (brand + website + social setup),osm,2026-05-04T11:47:22.388875Z
Chez Angelo,restaurant,Beirut,LB,,33.8892169,35.517097,+961 1 587 550,,,,,,,,1,high,"RTYLR commerce OS (POS, online ordering, CRM)",osm,2026-05-04T11:47:22.388875Z
بوتيك متحف الصابون في صيدا,gift,Beirut,LB,,33.892583,35.5171468,+961 3 88 76 88,,https://sidonia.shop/,True,,,,,2,medium,SEO audit + visibility upgrade,osm,2026-05-04T11:47:22.388875Z
Cafe Younes,coffee_shop,Beirut,LB,"VFVH+WPP, Baalbak, Bayrut, Lebanon",33.8948427,35.4793224,01 750 975,,http://www.cafeyounes.com/,True,,,4.4,896,3,high,"RTYLR commerce OS (POS, online ordering, CRM)",google_places|osm,2026-05-04T11:47:22.394171Z
Allcare Pharmacy,pharmacy,Mount Lebanon,LB,,33.8519173,35.5487747,+9615457037,,,,,,,,1,medium,Full digital launch (brand + website + social setup),osm,2026-05-04T11:47:22.388875Z
FS Office Supplies,electronics,Mount Lebanon,LB,,33.8523178,35.5489502,+961 5 950 180,,https://www.fsofficesupplies.net/,True,,,,,2,medium,SEO audit + visibility upgrade,osm,2026-05-04T11:47:22.388875Z
ATLAI,gift,Mount Lebanon,LB,,33.8519402,35.5466003,+961 5 951 172,,https://www.altailebanon.com/,True,,,,,2,medium,SEO audit + visibility upgrade,osm,2026-05-04T11:47:22.388875Z
الحويك,doityourself,Mount Lebanon,LB,Rue Ste. Mere Teresa,33.8886998,35.5547164,+9611880271,info@howayek.con,https://howayek.com,True,,,,,4,medium,SEO audit + visibility upgrade,osm,2026-05-04T11:47:22.388875Z
Chez Gio Gio,restaurant,Bekaa,LB,Zahlé,33.8398512,35.9143537,+961 8 822 884,,,,https://www.facebook.com/chezgio/,https://www.instagram.com/chezgiogio/,,,3,high,Website launch + capture their existing audience,osm,2026-05-04T11:47:22.388875Z
Uniun,restaurant,Beirut,LB,,33.8987,35.4837859,+961 1 444 514,,,,,,,,1,high,"RTYLR commerce OS (POS, online ordering, CRM)",osm,2026-05-04T11:47:22.388875Z
The HealthQuarters,clinic,Beirut,LB,شارع محمد بيضون,33.8854537,35.5113041,+961 1 425 182,,http://www.thehealthquarters.co/,True,,,,,3,high,SEO audit + visibility upgrade,osm,2026-05-04T11:47:22.388875Z
La Soltech,doityourself,Beirut,LB,شارع برج أبي حيدر,33.8828152,35.4985628,+9611706310,,,,,,,,2,medium,Full digital launch (brand + website + social setup),osm,2026-05-04T11:47:22.388875Z
ملحمة الحاج عوني لبدة وأولاده,restaurant,North Lebanon,LB,الميناء,34.4514979,35.8165592,+9616601925,,,,,,,,2,high,"RTYLR commerce OS (POS, online ordering, CRM)",osm,2026-05-04T11:47:22.388875Z
حلويات الجبّة,confectionery,Baalbek-Hermel,LB,,34.0061034,36.2081608,+9618373824,,,,aljebbeh,,,,2,medium,E-commerce launch + Instagram-to-store funnel,osm,2026-05-04T11:47:22.388875Z
Seray,restaurant,Beirut,LB,,33.8988683,35.5006813,+961 1 995 511,,,,,,,,1,high,"RTYLR commerce OS (POS, online ordering, CRM)",osm,2026-05-04T11:47:22.388875Z
أفران الزمار,bakery,Bekaa,LB,Route Vallée Ferzol,33.8625579,35.9518654,+9618951222,,,,,,,,2,medium,Full digital launch (brand + website + social setup),osm,2026-05-04T11:47:22.388875Z
صيدلية الربيع,pharmacy,Bekaa,LB,الغربي,33.891753,35.9875673,+961 8 910 818,,,,,,,,2,medium,Full digital launch (brand + website + social setup),osm,2026-05-04T11:47:22.388875Z
Chococrepe,confectionery,Bekaa,LB,Route Vallée Ferzol,33.8670264,35.9571511,+9618951722,,,,,,,,2,medium,Full digital launch (brand + website + social setup),osm,2026-05-04T11:47:22.388875Z
New foodies,supermarket,Bekaa,LB,"Ferzol, Lebanon",33.8577862,35.943011299999995,08 951 379,,,,,,4.3,307,2,medium,"RTYLR commerce OS (POS, online ordering, CRM)",google_places|osm,2026-05-04T11:47:22.394171Z
سوبرماركت البركة,supermarket,Bekaa,LB,الغربي,33.8918749,35.987577,+9618913217,,,,,,,,2,medium,"RTYLR commerce OS (POS, online ordering, CRM)",osm,2026-05-04T11:47:22.388875Z
Mamounia,restaurant,Mount Lebanon,LB,,33.8997276,35.5733992,+9611888326,,,,,,,,1,high,"RTYLR commerce OS (POS, online ordering, CRM)",osm,2026-05-04T11:47:22.388875Z
Deek'Matic,restaurant,Mount Lebanon,LB,"Main road, Qornet Chehwen",33.9208523,35.6337942,+961 4 922 161,,https://menu.omegasoftware.ca/deekmatic,True,,,,,3,high,SEO audit + visibility upgrade,osm,2026-05-04T11:47:22.388875Z
Elma Wedding Cars,car_rental,Mount Lebanon,LB,,33.9200322,35.6462608,+961 4 927 225,,,,,,,,1,medium,Full digital launch (brand + website + social setup),osm,2026-05-04T11:47:22.388875Z
Al NAHR RESTAURANT,restaurant,Bekaa,LB,Al nahr، Lebanon,33.9631411,35.779325299999996,04 288 197,,,,,,4.4,397,2,high,"RTYLR commerce OS (POS, online ordering, CRM)",google_places|osm,2026-05-04T11:47:22.394171Z
ملتقى السفير,cafe,Beirut,LB,,33.893587,35.4850665,+96181857880,,,,,multaqa.beirut,,,2,high,Website launch + capture their existing audience,osm,2026-05-04T11:47:22.388875Z
ماركت أنثني,convenience,Bekaa,LB,,33.8544401,35.8949839,+961 8 800 383,,,,,,,,1,medium,"RTYLR commerce OS (POS, online ordering, CRM)",osm,2026-05-04T11:47:22.388875Z
Kassab Resto & Butchery,restaurant,Beirut,LB,طريق دمشق,33.8540615,35.520703,+961 1 278 222,,,,,,,,2,high,"RTYLR commerce OS (POS, online ordering, CRM)",osm,2026-05-04T11:47:22.388875Z
بارون شانت,restaurant,Mount Lebanon,LB,أتستراد البحر,33.7845609,35.4765459,+9615807803;+96171119934,,,,,,,,2,high,"RTYLR commerce OS (POS, online ordering, CRM)",osm,2026-05-04T11:47:22.388875Z
Fakhani Fresh,supermarket,South Lebanon,LB,طريق صيدا القديمة,33.7981973,35.4856399,+9615803111,,,,,,,,2,medium,"RTYLR commerce OS (POS, online ordering, CRM)",osm,2026-05-04T11:47:22.388875Z
ديوان ماركت,supermarket,South Lebanon,LB,طريق صيدا القديمة,33.797652,35.4851554,+961 5 810 850,,http://www.diwanhypermarket.com,True,,,,,3,medium,SEO audit + visibility upgrade,osm,2026-05-04T11:47:22.388875Z
مؤسسة حسن الجمل التجارية,appliance,Beirut,LB,شارع برج أبي حيدر,33.8818686,35.497892,+9611307022,,https://aljamaltrading.com,True,,,,,3,medium,SEO audit + visibility upgrade,osm,2026-05-04T11:47:22.388875Z
تحت الشجرة,restaurant,Beirut,LB,شارع جان دارك,33.8980625,35.4814375,+96121750566,,,,,,,,2,high,"RTYLR commerce OS (POS, online ordering, CRM)",osm,2026-05-04T11:47:22.388875Z
Malik's Hamra,stationery,Beirut,LB,شارع الحمرا,33.8955835,35.4834251,+961 1 741 911,,,,,,,,2,medium,Full digital launch (brand + website + social setup),osm,2026-05-04T11:47:22.388875Z
حلويات الأنوار,confectionery,South Lebanon,LB,شارع الست نفيسة,33.5617573,35.3783528,+961 7 725 758,,,,,,,,2,medium,Full digital launch (brand + website + social setup),osm,2026-05-04T11:47:22.388875Z
Crêpe Station,confectionery,Beirut,LB,,33.8938441,35.5402278,+961 1 255 037,,,,,,,,1,medium,Full digital launch (brand + website + social setup),osm,2026-05-04T11:47:22.388875Z
مطعم ذوات,restaurant,South Lebanon,LB,,33.5657253,35.3722902,+961 7 723 724,,,,,https://www.instagram.com/zawat.restaurant,,,2,high,Website launch + capture their existing audience,osm,2026-05-04T11:47:22.388875Z
Jadov Pets Center,pet,South Lebanon,LB,طريق صيدا القديم,33.8055566,35.5015073,+9615441272,,,,,,,,2,medium,Full digital launch (brand + website + social setup),osm,2026-05-04T11:47:22.388875Z
Terabyte Computers Msaytbeh,computer,Beirut,LB,شارع بشير جنبلاط,33.8807435,35.4937647,+9611640501,,https://terabyte.computer/,False,,,,,3,high,Website rebuild + maintenance,osm,2026-05-04T11:47:22.388875Z
Château Qanafar Boutique,wine,Beirut,LB,Amine Gemayel street,33.8838807,35.5266331,+961 1 398 782,contactus@chateauqanafar.com,https://www.chateauqanafar.com/,True,chateauqanafar,chateauqanafar,,,5,medium,SEO audit + visibility upgrade,osm,2026-05-04T11:47:22.388875Z
Baba Bahaa,toys,Mount Lebanon,LB,,33.7450515,35.4547631,+9615601535,,http://bababahaaonline.com,False,Bababahaashop,,,,3,medium,Website rebuild + maintenance,osm,2026-05-04T11:47:22.388875Z
مؤسسة عماد كمال اللبان التجارية,hardware,Beirut,LB,,33.860432,35.5097671,+961 1 556 489,,,,,,,,1,medium,Full digital launch (brand + website + social setup),osm,2026-05-04T11:47:22.388875Z
Kado Ghamlouch,toys,Beirut,LB,ميشال زكور,33.8569592,35.5229041,+961 1 547 447,,http://kadoghamloush.com,True,,,,,3,medium,SEO audit + visibility upgrade,osm,2026-05-04T11:47:22.388875Z
Beit Toureef,hotel,Beirut,LB,,33.8953507,35.5191991,+961 1 443 495,,https://beittoureef.com/,True,,,,,2,high,SEO audit + visibility upgrade,osm,2026-05-04T11:47:22.388875Z
سوبرماركت يوسف ناصر,supermarket,South Lebanon,LB,,33.1661316,35.3910565,+9613976090,,,,,,,,1,medium,"RTYLR commerce OS (POS, online ordering, CRM)",osm,2026-05-04T11:47:22.388875Z
Sea Slim,bakery,Beirut,LB,شارع الياس البعقليني,33.885804,35.5203623,+96176336667,,,,,,,,2,medium,Full digital launch (brand + website + social setup),osm,2026-05-04T11:47:22.388875Z
كافية أبو الوليد,cafe,Akkar,LB,,34.5915375,36.1168348,+96170113470,,,,,,,,1,high,"RTYLR commerce OS (POS, online ordering, CRM)",osm,2026-05-04T11:47:22.388875Z
16MM,bar,Beirut,LB,Gouraud,33.8949542,35.51444,81 440 760,,,,,,,,2,high,"RTYLR commerce OS (POS, online ordering, CRM)",osm,2026-05-04T11:47:22.388875Z
Aroos almasayif,convenience,Mount Lebanon,LB,,33.807287,35.5975226,78862883,,,,,,,,1,medium,"RTYLR commerce OS (POS, online ordering, CRM)",osm,2026-05-04T11:47:22.388875Z
El Fouar Maronite School,school,North Lebanon,LB,El Fouar,34.4353498,35.8858662,06685656,,,,,,,,2,medium,Full digital launch (brand + website + social setup),osm,2026-05-04T11:47:22.388875Z
Abu Yahya,restaurant,Mount Lebanon,LB,,33.7856917,35.4901534,+9613779503,,,,,,,,1,high,"RTYLR commerce OS (POS, online ordering, CRM)",osm,2026-05-04T11:47:22.388875Z
Khayzaran56,restaurant,Mount Lebanon,LB,طريق البحر,33.7891013,35.4785711,+9613552235,,,,,,,,2,high,"RTYLR commerce OS (POS, online ordering, CRM)",osm,2026-05-04T11:47:22.388875Z
Al-Rouken Al-Shami,restaurant,Mount Lebanon,LB,,33.7870273,35.4798029,+961 5 802 955,,,,,,,,1,high,"RTYLR commerce OS (POS, online ordering, CRM)",osm,2026-05-04T11:47:22.388875Z
Falafel Khalifeh,restaurant,Mount Lebanon,LB,,33.7912056,35.4812004,+961 5 801 595,,,,,,,,1,high,"RTYLR commerce OS (POS, online ordering, CRM)",osm,2026-05-04T11:47:22.388875Z
أ ب ث الأشرفية,mall,Beirut,LB,,33.8889658,35.5196789,+961 1 212 888,,http://www.abc.com.lb/,True,,,,,2,medium,SEO audit + visibility upgrade,osm,2026-05-04T11:47:22.388875Z
فندق سان جورج,hotel,Beirut,LB,,33.9024311,35.4945685,+9611370741,,,,,,,,1,high,"RTYLR commerce OS (POS, online ordering, CRM)",osm,2026-05-04T11:47:22.388875Z
Al Assi Hospital,hospital,Akkar,LB,,34.3983304,36.4064865,+961 8 200 238,,,,https://www.facebook.com/alassihospital,,,,2,medium,Website launch + capture their existing audience,osm,2026-05-04T11:47:22.388875Z
Byblos Sur Mer,hotel,North Lebanon,LB,,34.1226154,35.6427738,+9619548000,,,,,,,,1,high,"RTYLR commerce OS (POS, online ordering, CRM)",osm,2026-05-04T11:47:22.388875Z
سيتي مول,mall,Mount Lebanon,LB,أتستراد البحر,33.8981178,35.5639031,+961 1 905 555,,https://citymall.com.lb/,True,,,,,3,medium,SEO audit + visibility upgrade,osm,2026-05-04T11:47:22.388875Z
Intercontinental Mzaar Hotel,hotel,Bekaa,LB,,33.9924013,35.8365726,+961 9 340 100,,https://www.ihg.com/intercontinental/hotels/gb/en/mzaar/mzrha/hoteldetail,True,,,,,2,high,SEO audit + visibility upgrade,osm,2026-05-04T11:47:22.388875Z
"Le Gray, Beirut",hotel,Beirut,LB,"Beirut Central District, Beirut, Lebanon",33.8972396,35.5067343,01 971 111,,http://www.legray.com/,True,,,4.6,970,3,high,"RTYLR commerce OS (POS, online ordering, CRM)",google_places|osm,2026-05-04T11:47:22.394171Z
مدرسة الإخوة المريميين الشانفيل,college,Mount Lebanon,LB,ديك المحدي,33.9353951,35.617007,+961 4 913 327,,https://www.champville.edu.lb/,True,,,,,3,medium,SEO audit + visibility upgrade,osm,2026-05-04T11:47:22.388875Z
الرسول الأعظم,hospital,Mount Lebanon,LB,,33.8431013,35.4987114,+9611458555;+9611456455;+9611456456,info@alrassoul.org,http://alrassoul.org/ar/,True,,,,,3,medium,SEO audit + visibility upgrade,osm,2026-05-04T11:47:22.388875Z
أ ب سي الضبية‎‎,mall,Mount Lebanon,LB,الضبية‎‎,33.9266286,35.5882046,+961 4 416 000,,http://www.abc.com.lb/,True,,,,,3,medium,SEO audit + visibility upgrade,osm,2026-05-04T11:47:22.388875Z
لو مول,mall,Mount Lebanon,LB,ضبية,33.9297064,35.5890885,+961 4 408 111,,https://www.lemall.com.lb/,True,,,,,3,medium,SEO audit + visibility upgrade,osm,2026-05-04T11:47:22.388875Z
هوم سنتر,furniture,Beirut,LB,سن الفيل,33.8686042,35.5357765,+961 5 956 448,,http://www.homecentrestores.com/,False,,,,,3,medium,Website rebuild + maintenance,osm,2026-05-04T11:47:22.388875Z
Hilton Beirut Metropolitan Palace,hotel,Beirut,LB,"Dimitri El Hayek, بيروت",33.8707953,35.5359606,+961 1 496 666,BeirutMetropolitanpalace.Information@hilton.com,https://www.hilton.com/en/hotels/beymphi-hilton-beirut-metropolitan-palace/,True,http://www.facebook.com/HiltonBeirutMetropolitanPalace,,,,5,high,SEO audit + visibility upgrade,osm,2026-05-04T11:47:22.388875Z
مستشفى يونيفيل,hospital,South Lebanon,LB,الناقورة,33.1240808,35.1372511,+9611925000,,https://unifil.unmissions.org/,True,,,,,3,medium,SEO audit + visibility upgrade,osm,2026-05-04T11:47:22.388875Z
Fahd Supermarket - Forn El Chebbak,supermarket,Beirut,LB,"Forn El Chebbak, Lebanon",33.8699539,35.5249211,01 292 003,,,,,,4.1,1659,2,medium,"RTYLR commerce OS (POS, online ordering, CRM)",google_places|osm,2026-05-04T11:47:22.394171Z
Four Points by Sheraton Le Verdun,hotel,Beirut,LB,"Verdun, Boulevard, طريق صائب سلام، بيروت، Lebanon",33.8821803,35.4855108,01 803 804,verdun.reservations@fourpointshotels.com,https://www.marriott.com/en-us/hotels/beyfp-four-points-le-verdun/overview/?scid=f2ae0541-1279-4f24-b197-a979c79310b0,True,,,4.2,888,4,high,"RTYLR commerce OS (POS, online ordering, CRM)",google_places|osm,2026-05-04T11:47:22.394171Z
Four Seasons Hotel Beirut,hotel,Beirut,LB,"1418 Prof. Wafic Sinno, طريق ميناء الحصن، بيروت 2020 4107, Lebanon",33.9016795,35.4990035,01 761 000,,https://www.fourseasons.com/beirut/?utm_source=google&utm_medium=organicsearch&utm_campaign=tor-bei-hre-mid-seo-na&utm_content=na-na&utm_term=na,True,,,4.6,2114,3,high,"RTYLR commerce OS (POS, online ordering, CRM)",google_places|osm,2026-05-04T11:47:22.394171Z
Pépinières La Sagesse,garden_centre,Mount Lebanon,LB,,33.8915512,35.5696079,+961 1 887 161,,,,,,,,1,medium,Full digital launch (brand + website + social setup),osm,2026-05-04T11:47:22.388875Z
Saint George Hospital University Medical Center,hospital,Beirut,LB,"Saint George hospital university medical center, Achrafieh, Lebanon",33.8937793,35.523658999999995,01 441 000,,https://www.stgeorgehospital.org/contact,True,,,3.7,227,3,medium,Reputation + SEO turnaround,google_places|osm,2026-05-04T11:47:22.394171Z
الأكاديمية اللبنانية للفنون الجميلة,university,Beirut,LB,"شارع 23, سن الفيل",33.8796167,35.5407206,+9611480056,,https://alba.edu.lb,True,,,,,3,medium,SEO audit + visibility upgrade,osm,2026-05-04T11:47:22.388875Z
مستشفى السلام,hospital,North Lebanon,LB,,34.4214788,35.8268755,+961 6 411 700,,,,,,,,1,medium,Full digital launch (brand + website + social setup),osm,2026-05-04T11:47:22.388875Z
